{
  "poi-001":{
    "id":"poi-001",
    "name":"Sekolah Islam Amelia",
    "address":"Jl. Raya Kampung Ambon, Serpong, Tangerang Selatan",
    "lat":-6.2786615,
    "lon":106.6919076,
    "radius":1500.0,
    "poi_type":"school",
    "description":"Elementary school - restricted area for high-risk offenders",
    "created_at":"2025-11-12 16:47:09.257766",
    "is_active":true
  },
  "5fd7b6c0-44c3-4d1a-ac61-9e85f75f4e0a":{
    "id":"5fd7b6c0-44c3-4d1a-ac61-9e85f75f4e0a",
    "name":"Kel. Pondok Benda, Tangerang Selatan",
    "address":"Jl. Siliwangi No.1, Pd. Benda, Kec. Pamulang, Kota Tangerang Selatan, Banten 15416",
    "lat":-6.3427657,
    "lon":106.6960711,
    "radius":2000.0,
    "poi_type":"other",
    "description":"Kelurahan rawan narkoba, tempat penjualan, dan penangkapan yang tinggi",
    "created_at":"2025-11-12 19:15:43.668101",
    "is_active":true
  },
  "7edcf8cd-d8c8-4cbf-b550-8149ffee26af":{
    "id":"7edcf8cd-d8c8-4cbf-b550-8149ffee26af",
    "name":"Meunasah Bungo, Peudada, Bireuen",
    "address":"Meunasah Bungo, Peudada, Bireuen",
    "lat":5.1855869,
    "lon":96.6143838,
    "radius":2000.0,
    "poi_type":"other",
    "description":"Kelurahan rawan narkoba, tempat penjualan, dan penangkapan yang tinggi",
    "created_at":"2025-11-13 09:59:19.601027",
    "is_active":true
  },
  "6fe8f7dc-87a3-4186-8f4a-0b6d1ce8d7bf":{
    "id":"6fe8f7dc-87a3-4186-8f4a-0b6d1ce8d7bf",
    "name":"Kemukiman Lamteuba, Kec. Seulimeum, Kab. Aceh Besar",
    "address":"Kemukiman Lamteuba, Kec. Seulimeum, Kab. Aceh Besar",
    "lat":5.487148,
    "lon":95.611893,
    "radius":2000.0,
    "poi_type":"other",
    "description":"Kelurahan rawan narkoba, tempat penjualan, dan penangkapan yang tinggi",
    "created_at":"2025-11-13 09:59:19.601077",
    "is_active":true
  },
  "a47d12e1-ae77-4fab-a461-d27b08a798e9":{
    "id":"a47d12e1-ae77-4fab-a461-d27b08a798e9",
    "name":"Pusong Lama, Kec. Banda Sakti, Kab. Lhoksemauwe",
    "address":"Pusong Lama, Kec. Banda Sakti, Kab. Lhoksemauwe",
    "lat":5.1700745,
    "lon":97.1487266,
    "radius":2000.0,
    "poi_type":"other",
    "description":"Kelurahan rawan narkoba, tempat penjualan, dan penangkapan yang tinggi",
    "created_at":"2025-11-13 09:59:19.601102",
    "is_active":true
  },
  "0d826c18-f2a5-4465-b5ef-b26313603cf8":{
    "id":"0d826c18-f2a5-4465-b5ef-b26313603cf8",
    "name":"Gampong Sungai Paoh Pusaka, Kec, Langsa Barat, Kota Langsa",
    "address":"Gampong Sungai Paoh Pusaka, Kec, Langsa Barat, Kota Langsa",
    "lat":4.4826256,
    "lon":97.986535,
    "radius":2000.0,
    "poi_type":"other",
    "description":"Kelurahan rawan narkoba, tempat penjualan, dan penangkapan yang tinggi",
    "created_at":"2025-11-13 09:59:19.601133",
    "is_active":true
  },
  "fb126d1c-fcc5-48a0-a562-497386316420":{
    "id":"fb126d1c-fcc5-48a0-a562-497386316420",
    "name":"Gampong Ujong Pie, Kec, Muara Tiga, Kab. Pidie",
    "address":"Gampong Ujong Pie, Kec, Muara Tiga, Kab. Pidie",
    "lat":5.5292339,
    "lon":95.8287907,
    "radius":2000.0,
    "poi_type":"other",
    "description":"Kelurahan rawan narkoba, tempat penjualan, dan penangkapan yang tinggi",
    "created_at":"2025-11-13 09:59:19.601155",
    "is_active":true
  },
  "7f9b2c15-b5f5-44cb-989f-04ce19cf5bc9":{
    "id":"7f9b2c15-b5f5-44cb-989f-04ce19cf5bc9",
    "name":"Gampong Lhokbengkuan, Kec, Tapak Tuan Samadua Kab. Tapak Tuan",
    "address":"Gampong Lhokbengkuan, Kec, Tapak Tuan Samadua Kab. Tapak Tuan",
    "lat":3.2615631,
    "lon":97.180373,
    "radius":2000.0,
    "poi_type":"other",
    "description":"Kelurahan rawan narkoba, tempat penjualan, dan penangkapan yang tinggi",
    "created_at":"2025-11-13 09:59:19.601175",
    "is_active":true
  },
  "17f26789-870b-467b-aa32-5c39be4290c3":{
    "id":"17f26789-870b-467b-aa32-5c39be4290c3",
    "name":"Gampong Kuta Atas, Kec. Suka Karya, Kota Sabang",
    "address":"Gampong Kuta Atas, Kec. Suka Karya, Kota Sabang",
    "lat":5.895839,
    "lon":95.3193997,
    "radius":2000.0,
    "poi_type":"other",
    "description":"Kelurahan rawan narkoba, tempat penjualan, dan penangkapan yang tinggi",
    "created_at":"2025-11-13 09:59:19.601195",
    "is_active":true
  },
  "1f2f0c86-ca83-4906-90de-f28fa1cf6762":{
    "id":"1f2f0c86-ca83-4906-90de-f28fa1cf6762",
    "name":"Gampong Kampung Dalam Kec, Karang Baru, Kab. Aceh Tamiang",
    "address":"Gampong Kampung Dalam Kec, Karang Baru, Kab. Aceh Tamiang",
    "lat":4.2946349,
    "lon":98.0533379,
    "radius":2000.0,
    "poi_type":"other",
    "description":"Kelurahan rawan narkoba, tempat penjualan, dan penangkapan yang tinggi",
    "created_at":"2025-11-13 09:59:19.601220",
    "is_active":true
  },
  "ed9c53ae-8bda-40dc-b6ad-6185664e91e1":{
    "id":"ed9c53ae-8bda-40dc-b6ad-6185664e91e1",
    "name":"Gampong Agusen Kec, Blangkejeren, Kab. Gayo Lues",
    "address":"Gampong Agusen Kec, Blangkejeren, Kab. Gayo Lues",
    "lat":3.9042967,
    "lon":97.3840729,
    "radius":2000.0,
    "poi_type":"other",
    "description":"Kelurahan rawan narkoba, tempat penjualan, dan penangkapan yang tinggi",
    "created_at":"2025-11-13 09:59:19.601240",
    "is_active":true
  },
  "80dce075-c5a4-4d6b-9b53-7030344c32e6":{
    "id":"80dce075-c5a4-4d6b-9b53-7030344c32e6",
    "name":"Gampong Beuringen Kec, Meurah dua, Kab. Pidie Jaya",
    "address":"Gampong Beuringen Kec, Meurah dua, Kab. Pidie Jaya",
    "lat":5.2494922,
    "lon":96.2648126,
    "radius":2000.0,
    "poi_type":"other",
    "description":"Kelurahan rawan narkoba, tempat penjualan, dan penangkapan yang tinggi",
    "created_at":"2025-11-13 09:59:19.601258",
    "is_active":true
  },
  "4ffdf332-996b-4b28-ac8b-ed39734c4b2d":{
    "id":"4ffdf332-996b-4b28-ac8b-ed39734c4b2d",
    "name":"Gampong Neusu Aceh, Kec, Baiturraman, Kota Banda Aceh",
    "address":"Gampong Neusu Aceh, Kec, Baiturraman, Kota Banda Aceh",
    "lat":5.5438244,
    "lon":95.3174391,
    "radius":2000.0,
    "poi_type":"other",
    "description":"Kelurahan rawan narkoba, tempat penjualan, dan penangkapan yang tinggi",
    "created_at":"2025-11-13 09:59:19.601276",
    "is_active":true
  },
  "708298b9-f9c5-4e5c-bbf5-83d88525637c":{
    "id":"708298b9-f9c5-4e5c-bbf5-83d88525637c",
    "name":"Gampong Lambieut, Kec, Darul Kamal, Kab. Aceh Besar",
    "address":"Gampong Lambieut, Kec, Darul Kamal, Kab. Aceh Besar",
    "lat":5.4894907,
    "lon":95.3298578,
    "radius":2000.0,
    "poi_type":"other",
    "description":"Kelurahan rawan narkoba, tempat penjualan, dan penangkapan yang tinggi",
    "created_at":"2025-11-13 09:59:19.601295",
    "is_active":true
  },
  "5bfbd87c-e1ef-48df-843a-0e6b0a659c93":{
    "id":"5bfbd87c-e1ef-48df-843a-0e6b0a659c93",
    "name":"Gampong Kukue Kec, Peudada Kab. Bireuen",
    "address":"Gampong Kukue Kec, Peudada Kab. Bireuen",
    "lat":5.2044638,
    "lon":96.6070396,
    "radius":2000.0,
    "poi_type":"other",
    "description":"Kelurahan rawan narkoba, tempat penjualan, dan penangkapan yang tinggi",
    "created_at":"2025-11-13 09:59:19.601313",
    "is_active":true
  },
  "6a51e00b-5122-459b-aa0c-d0cce4841aa9":{
    "id":"6a51e00b-5122-459b-aa0c-d0cce4841aa9",
    "name":"Gampong Seuneubok Plimbang Kec, Plimbang Kab. Bireuen",
    "address":"Gampong Seuneubok Plimbang Kec, Plimbang Kab. Bireuen",
    "lat":5.1923006,
    "lon":96.5296434,
    "radius":2000.0,
    "poi_type":"other",
    "description":"Kelurahan rawan narkoba, tempat penjualan, dan penangkapan yang tinggi",
    "created_at":"2025-11-13 09:59:19.601331",
    "is_active":true
  },
  "f180bb12-3ea1-449a-a91e-3cbe7550bab6":{
    "id":"f180bb12-3ea1-449a-a91e-3cbe7550bab6",
    "name":"Gampong Meurandeh Aceh, Kec, Langsa Lama, Kota Langsa",
    "address":"Gampong Meurandeh Aceh, Kec, Langsa Lama, Kota Langsa",
    "lat":4.4495994,
    "lon":97.9729094,
    "radius":2000.0,
    "poi_type":"other",
    "description":"Kelurahan rawan narkoba, tempat penjualan, dan penangkapan yang tinggi",
    "created_at":"2025-11-13 09:59:19.601349",
    "is_active":true
  },
  "4087678e-e678-4c6e-b34a-afdad76d7fe8":{
    "id":"4087678e-e678-4c6e-b34a-afdad76d7fe8",
    "name":"Gampong Seuneubok Keuranji, Kec, Kota Bahagia, Kab, Aceh selatan",
    "address":"Gampong Seuneubok Keuranji, Kec, Kota Bahagia, Kab, Aceh selatan",
    "lat":3.0214841,
    "lon":97.5138947,
    "radius":2000.0,
    "poi_type":"other",
    "description":"Kelurahan rawan narkoba, tempat penjualan, dan penangkapan yang tinggi",
    "created_at":"2025-11-13 09:59:19.601366",
    "is_active":true
  },
  "a2b62f1b-bcf4-447f-9ac9-19f3d7a252b3":{
    "id":"a2b62f1b-bcf4-447f-9ac9-19f3d7a252b3",
    "name":"Gampong Tgk Dilaweung Kec, Muara Tiga Kab. Pidie",
    "address":"Gampong Tgk Dilaweung Kec, Muara Tiga Kab. Pidie",
    "lat":5.5080084,
    "lon":95.8630825,
    "radius":2000.0,
    "poi_type":"other",
    "description":"Kelurahan rawan narkoba, tempat penjualan, dan penangkapan yang tinggi",
    "created_at":"2025-11-13 09:59:19.601390",
    "is_active":true
  },
  "2a5e539a-94a6-481b-a432-c6d41f92bf71":{
    "id":"2a5e539a-94a6-481b-a432-c6d41f92bf71",
    "name":"Gampong Sagoe, Kec. Muara Tiga, Kab. Pidie",
    "address":"Gampong Sagoe, Kec. Muara Tiga, Kab. Pidie",
    "lat":5.518848,
    "lon":95.821037,
    "radius":2000.0,
    "poi_type":"other",
    "description":"Kelurahan rawan narkoba, tempat penjualan, dan penangkapan yang tinggi",
    "created_at":"2025-11-13 09:59:19.601409",
    "is_active":true
  },
  "3e3d3677-9fdd-4258-bb5d-7dfd529e9604":{
    "id":"3e3d3677-9fdd-4258-bb5d-7dfd529e9604",
    "name":"Gampong pusong Baro, Kec. Banda Sakti, Kota Lhokseumawe",
    "address":"Gampong pusong Baro, Kec. Banda Sakti, Kota Lhokseumawe",
    "lat":5.1726487,
    "lon":97.150073,
    "radius":2000.0,
    "poi_type":"other",
    "description":"Kelurahan rawan narkoba, tempat penjualan, dan penangkapan yang tinggi",
    "created_at":"2025-11-13 09:59:19.601432",
    "is_active":true
  },
  "31d09691-da61-439a-976f-00fddf75d554":{
    "id":"31d09691-da61-439a-976f-00fddf75d554",
    "name":"Gampong Moengeudong, Kec. Banda Sakti, Kota Lhokseumawe",
    "address":"Gampong Moengeudong, Kec. Banda Sakti, Kota Lhokseumawe",
    "lat":5.1773245,
    "lon":97.1372838,
    "radius":2000.0,
    "poi_type":"other",
    "description":"Kelurahan rawan narkoba, tempat penjualan, dan penangkapan yang tinggi",
    "created_at":"2025-11-13 09:59:19.601450",
    "is_active":true
  },
  "cbcf880d-e353-41a9-9a2f-dfa924b010f4":{
    "id":"cbcf880d-e353-41a9-9a2f-dfa924b010f4",
    "name":"Gampong Meunasah Mee, Kec. Muara Dua, Kota Lhokseumawe",
    "address":"Gampong Meunasah Mee, Kec. Muara Dua, Kota Lhokseumawe",
    "lat":5.1578896,
    "lon":97.1386299,
    "radius":2000.0,
    "poi_type":"other",
    "description":"Kelurahan rawan narkoba, tempat penjualan, dan penangkapan yang tinggi",
    "created_at":"2025-11-13 09:59:19.601468",
    "is_active":true
  },
  "50c47c64-636e-4f54-a8a8-2aa39929b60c":{
    "id":"50c47c64-636e-4f54-a8a8-2aa39929b60c",
    "name":"Gampong Kuta Barat, Kec. Suka Karya, Kota Sabang",
    "address":"Gampong Kuta Barat, Kec. Suka Karya, Kota Sabang",
    "lat":5.890629,
    "lon":95.3141714,
    "radius":2000.0,
    "poi_type":"other",
    "description":"Kelurahan rawan narkoba, tempat penjualan, dan penangkapan yang tinggi",
    "created_at":"2025-11-13 09:59:19.601485",
    "is_active":true
  },
  "6875c6e8-4854-442d-b621-81e64c5913c3":{
    "id":"6875c6e8-4854-442d-b621-81e64c5913c3",
    "name":"Gampong Bukit, Kec. Blangkejeren, Kab. Gayo Lues",
    "address":"Gampong Bukit, Kec. Blangkejeren, Kab. Gayo Lues",
    "lat":3.9963191,
    "lon":97.3496302,
    "radius":2000.0,
    "poi_type":"other",
    "description":"Kelurahan rawan narkoba, tempat penjualan, dan penangkapan yang tinggi",
    "created_at":"2025-11-13 09:59:19.601504",
    "is_active":true
  },
  "df95f7d6-904c-48fa-8e7a-4836b70c08c3":{
    "id":"df95f7d6-904c-48fa-8e7a-4836b70c08c3",
    "name":"Gampong Meuraxa, Kec. Meurendeu, Kab. Pidie Jaya",
    "address":"Gampong Meuraxa, Kec. Meurendeu, Kab. Pidie Jaya",
    "lat":5.5512251,
    "lon":95.3114009,
    "radius":2000.0,
    "poi_type":"other",
    "description":"Kelurahan rawan narkoba, tempat penjualan, dan penangkapan yang tinggi",
    "created_at":"2025-11-13 09:59:19.601521",
    "is_active":true
  },
  "ac3c68c8-8b01-4512-85ed-ffc59d656fe6":{
    "id":"ac3c68c8-8b01-4512-85ed-ffc59d656fe6",
    "name":"Gampong Ateuk Menjeng, Kec. Baiturrahman, Kota Banda Aceh",
    "address":"Gampong Ateuk Menjeng, Kec. Baiturrahman, Kota Banda Aceh",
    "lat":5.5392085,
    "lon":95.3220141,
    "radius":2000.0,
    "poi_type":"other",
    "description":"Kelurahan rawan narkoba, tempat penjualan, dan penangkapan yang tinggi",
    "created_at":"2025-11-13 09:59:19.601539",
    "is_active":true
  },
  "da2d4efd-c1f4-4404-844d-a121a9a2e9fe":{
    "id":"da2d4efd-c1f4-4404-844d-a121a9a2e9fe",
    "name":"Gampong Kota Lintang, Kec. Kota Kuala Simpang, Kab. Aceh Tamiang",
    "address":"Gampong Kota Lintang, Kec. Kota Kuala Simpang, Kab. Aceh Tamiang",
    "lat":4.2920341,
    "lon":98.0587939,
    "radius":2000.0,
    "poi_type":"other",
    "description":"Kelurahan rawan narkoba, tempat penjualan, dan penangkapan yang tinggi",
    "created_at":"2025-11-13 09:59:19.601556",
    "is_active":true
  },
  "33e97c56-b534-4341-ad00-d1950a1e77a3":{
    "id":"33e97c56-b534-4341-ad00-d1950a1e77a3",
    "name":"Gampong Balee Daka, Kec. Plimbang, Kab. Bireuen",
    "address":"Gampong Balee Daka, Kec. Plimbang, Kab. Bireuen",
    "lat":5.1475621,
    "lon":96.5316438,
    "radius":2000.0,
    "poi_type":"other",
    "description":"Kelurahan rawan narkoba, tempat penjualan, dan penangkapan yang tinggi",
    "created_at":"2025-11-13 09:59:19.601574",
    "is_active":true
  },
  "801aeb1d-6174-4ca7-8059-3235429a830a":{
    "id":"801aeb1d-6174-4ca7-8059-3235429a830a",
    "name":"Gampong Kuala Jeumpa, Kec. Jeumpa, Kab. Bireuen",
    "address":"Gampong Kuala Jeumpa, Kec. Jeumpa, Kab. Bireuen",
    "lat":5.2130503,
    "lon":96.6537897,
    "radius":2000.0,
    "poi_type":"other",
    "description":"Kelurahan rawan narkoba, tempat penjualan, dan penangkapan yang tinggi",
    "created_at":"2025-11-13 09:59:19.601591",
    "is_active":true
  },
  "4e15c2e2-df7a-4486-917a-5f7e21fedfc4":{
    "id":"4e15c2e2-df7a-4486-917a-5f7e21fedfc4",
    "name":"Gampong Cot Geurendong, Kec. Jeumpa, Kab. Bireuen",
    "address":"Gampong Cot Geurendong, Kec. Jeumpa, Kab. Bireuen",
    "lat":5.2238128,
    "lon":96.6785142,
    "radius":2000.0,
    "poi_type":"other",
    "description":"Kelurahan rawan narkoba, tempat penjualan, dan penangkapan yang tinggi",
    "created_at":"2025-11-13 09:59:19.601609",
    "is_active":true
  },
  "14920225-6817-4205-922c-bd70aa7bf299":{
    "id":"14920225-6817-4205-922c-bd70aa7bf299",
    "name":"Gampong Pulo Tukok, Kec. Batee, Kab. Pidie",
    "address":"Gampong Pulo Tukok, Kec. Batee, Kab. Pidie",
    "lat":5.4005866,
    "lon":95.9132364,
    "radius":2000.0,
    "poi_type":"other",
    "description":"Kelurahan rawan narkoba, tempat penjualan, dan penangkapan yang tinggi",
    "created_at":"2025-11-13 09:59:19.601627",
    "is_active":true
  },
  "baf879b7-7add-4ec3-bfa8-839c96c95606":{
    "id":"baf879b7-7add-4ec3-bfa8-839c96c95606",
    "name":"Gampong Meunasah Blang, Kec. Muara Dua, Kota lhokseumawe",
    "address":"Gampong Meunasah Blang, Kec. Muara Dua, Kota lhokseumawe",
    "lat":5.1567008,
    "lon":97.1292076,
    "radius":2000.0,
    "poi_type":"other",
    "description":"Kelurahan rawan narkoba, tempat penjualan, dan penangkapan yang tinggi",
    "created_at":"2025-11-13 09:59:19.601644",
    "is_active":true
  },
  "cb6760f6-07c8-42b8-93c6-800ace574b78":{
    "id":"cb6760f6-07c8-42b8-93c6-800ace574b78",
    "name":"Gampong Keude aceh, Kec. Banda Sakti, Kota Lhokseumawe",
    "address":"Gampong Keude aceh, Kec. Banda Sakti, Kota Lhokseumawe",
    "lat":5.1748966,
    "lon":97.1433858,
    "radius":2000.0,
    "poi_type":"other",
    "description":"Kelurahan rawan narkoba, tempat penjualan, dan penangkapan yang tinggi",
    "created_at":"2025-11-13 09:59:19.601661",
    "is_active":true
  },
  "0e5080a9-b36a-43ce-93eb-f5b5fa870ed7":{
    "id":"0e5080a9-b36a-43ce-93eb-f5b5fa870ed7",
    "name":"Gampong Meunasah Manyang, Kec. Muara Dua, Kota Lhokseumawe",
    "address":"Gampong Meunasah Manyang, Kec. Muara Dua, Kota Lhokseumawe",
    "lat":5.1436678,
    "lon":97.1372838,
    "radius":2000.0,
    "poi_type":"other",
    "description":"Kelurahan rawan narkoba, tempat penjualan, dan penangkapan yang tinggi",
    "created_at":"2025-11-13 09:59:19.601680",
    "is_active":true
  },
  "461a036f-99c7-4bdb-8211-07b8373cb2ad":{
    "id":"461a036f-99c7-4bdb-8211-07b8373cb2ad",
    "name":"Gampong Paya Suenara, Kec. Suka Karya, Kota sabang",
    "address":"Gampong Paya Suenara, Kec. Suka Karya, Kota sabang",
    "lat":5.8472409,
    "lon":95.3154784,
    "radius":2000.0,
    "poi_type":"other",
    "description":"Kelurahan rawan narkoba, tempat penjualan, dan penangkapan yang tinggi",
    "created_at":"2025-11-13 09:59:19.601701",
    "is_active":true
  },
  "df40c536-dd90-45fb-a0d9-bd452373369c":{
    "id":"df40c536-dd90-45fb-a0d9-bd452373369c",
    "name":"Gampong Meunasah Balek, Kec. Meuredeu, Kab. Pidie Jaya",
    "address":"Gampong Meunasah Balek, Kec. Meuredeu, Kab. Pidie Jaya",
    "lat":5.2593323,
    "lon":96.2548534,
    "radius":2000.0,
    "poi_type":"other",
    "description":"Kelurahan rawan narkoba, tempat penjualan, dan penangkapan yang tinggi",
    "created_at":"2025-11-13 09:59:19.601720",
    "is_active":true
  },
  "7113f8d6-13c4-4b74-9f05-f6e59ad9d3ab":{
    "id":"7113f8d6-13c4-4b74-9f05-f6e59ad9d3ab",
    "name":"Gampong Kute Lintang, Kec. Blangkejeren, Kab. Gayo Lues",
    "address":"Gampong Kute Lintang, Kec. Blangkejeren, Kab. Gayo Lues",
    "lat":4.0020599,
    "lon":97.3449042,
    "radius":2000.0,
    "poi_type":"other",
    "description":"Kelurahan rawan narkoba, tempat penjualan, dan penangkapan yang tinggi",
    "created_at":"2025-11-13 09:59:19.601742",
    "is_active":true
  },
  "00bfe28a-c18c-47e1-83f6-0f9dce72e2e1":{
    "id":"00bfe28a-c18c-47e1-83f6-0f9dce72e2e1",
    "name":"Gampong Seuneubok Alur Buloh, Kec. Kota Bahagia, Kab. Aceh Selatan",
    "address":"Gampong Seuneubok Alur Buloh, Kec. Kota Bahagia, Kab. Aceh Selatan",
    "lat":2.9615045,
    "lon":97.5788975,
    "radius":2000.0,
    "poi_type":"other",
    "description":"Kelurahan rawan narkoba, tempat penjualan, dan penangkapan yang tinggi",
    "created_at":"2025-11-13 09:59:19.601761",
    "is_active":true
  },
  "6dc3ec4b-7182-44b0-9220-a6f29564ee5d":{
    "id":"6dc3ec4b-7182-44b0-9220-a6f29564ee5d",
    "name":"Gampong Alue Beurawe, Kec. Langsa Kota, Kota Langsa",
    "address":"Gampong Alue Beurawe, Kec. Langsa Kota, Kota Langsa",
    "lat":4.4698936,
    "lon":97.9838097,
    "radius":2000.0,
    "poi_type":"other",
    "description":"Kelurahan rawan narkoba, tempat penjualan, dan penangkapan yang tinggi",
    "created_at":"2025-11-13 09:59:19.601779",
    "is_active":true
  },
  "a09afc3d-ac21-44e7-b768-5a71fc6aa4c2":{
    "id":"a09afc3d-ac21-44e7-b768-5a71fc6aa4c2",
    "name":"Gampong Cinta raja, Kec. Langsa Timur, Kota Langsa",
    "address":"Gampong Cinta raja, Kec. Langsa Timur, Kota Langsa",
    "lat":4.4617324,
    "lon":98.0301544,
    "radius":2000.0,
    "poi_type":"other",
    "description":"Kelurahan rawan narkoba, tempat penjualan, dan penangkapan yang tinggi",
    "created_at":"2025-11-13 09:59:19.601801",
    "is_active":true
  },
  "842c579e-5a49-49a0-9730-49c75dd6a6be":{
    "id":"842c579e-5a49-49a0-9730-49c75dd6a6be",
    "name":"Gampong Blang Samagadeng, Kec. Pandrah, Kab. Bireuen",
    "address":"Gampong Blang Samagadeng, Kec. Pandrah, Kab. Bireuen",
    "lat":5.156016,
    "lon":96.4649964,
    "radius":2000.0,
    "poi_type":"other",
    "description":"Kelurahan rawan narkoba, tempat penjualan, dan penangkapan yang tinggi",
    "created_at":"2025-11-13 09:59:19.601819",
    "is_active":true
  },
  "4756db83-4e83-4dbe-86fb-eca5275f3318":{
    "id":"4756db83-4e83-4dbe-86fb-eca5275f3318",
    "name":"Gampong Cureh Baroh, Kec. Pandrah, Kab. Bireuen",
    "address":"Gampong Cureh Baroh, Kec. Pandrah, Kab. Bireuen",
    "lat":5.2210173,
    "lon":96.4490114,
    "radius":2000.0,
    "poi_type":"other",
    "description":"Kelurahan rawan narkoba, tempat penjualan, dan penangkapan yang tinggi",
    "created_at":"2025-11-13 09:59:19.601836",
    "is_active":true
  },
  "5b29fd39-5460-42dc-b21f-3fc5a13c2b3f":{
    "id":"5b29fd39-5460-42dc-b21f-3fc5a13c2b3f",
    "name":"Gampong perdamaian, Kec. Kota Kuala Simpang, Kab. Aceh Tamiang",
    "address":"Gampong perdamaian, Kec. Kota Kuala Simpang, Kab. Aceh Tamiang",
    "lat":4.2811769,
    "lon":98.0635683,
    "radius":2000.0,
    "poi_type":"other",
    "description":"Kelurahan rawan narkoba, tempat penjualan, dan penangkapan yang tinggi",
    "created_at":"2025-11-13 09:59:19.601862",
    "is_active":true
  },
  "cea02097-cc2d-4c61-a436-e6cc19ba8f79":{
    "id":"cea02097-cc2d-4c61-a436-e6cc19ba8f79",
    "name":"Gampong Alue Deah Teungoh, Kec. Meuraxa, Kota Banda Aceh",
    "address":"Gampong Alue Deah Teungoh, Kec. Meuraxa, Kota Banda Aceh",
    "lat":5.5622804,
    "lon":95.3004493,
    "radius":2000.0,
    "poi_type":"other",
    "description":"Kelurahan rawan narkoba, tempat penjualan, dan penangkapan yang tinggi",
    "created_at":"2025-11-13 09:59:19.601882",
    "is_active":true
  },
  "b37bd920-6062-4bf6-b944-f4fc19086bf5":{
    "id":"b37bd920-6062-4bf6-b944-f4fc19086bf5",
    "name":"Gampong Lhok Sialang Ranyeuk, Kec. Pasie Raja, Kab. Aceh Selatan",
    "address":"Gampong Lhok Sialang Ranyeuk, Kec. Pasie Raja, Kab. Aceh Selatan",
    "lat":3.1744809,
    "lon":97.3273531,
    "radius":2000.0,
    "poi_type":"other",
    "description":"Kelurahan rawan narkoba, tempat penjualan, dan penangkapan yang tinggi",
    "created_at":"2025-11-13 09:59:19.601901",
    "is_active":true
  },
  "00f675f3-166c-4bfe-ae6a-2ff4f7899602":{
    "id":"00f675f3-166c-4bfe-ae6a-2ff4f7899602",
    "name":"Gampong Mee Peuduk, Kec. Tringgadeng, Kab. Piddie Jaya",
    "address":"Gampong Mee Peuduk, Kec. Tringgadeng, Kab. Piddie Jaya",
    "lat":5.2497324,
    "lon":96.1752377,
    "radius":2000.0,
    "poi_type":"other",
    "description":"Kelurahan rawan narkoba, tempat penjualan, dan penangkapan yang tinggi",
    "created_at":"2025-11-13 09:59:19.601919",
    "is_active":true
  },
  "6ca5e0a4-4522-429f-95f0-89fb2b387f97":{
    "id":"6ca5e0a4-4522-429f-95f0-89fb2b387f97",
    "name":"Gampong Durin, Kec. Blangkejeren, Kab. Gayo Lues",
    "address":"Gampong Durin, Kec. Blangkejeren, Kab. Gayo Lues",
    "lat":3.9960601,
    "lon":97.3432164,
    "radius":2000.0,
    "poi_type":"other",
    "description":"Kelurahan rawan narkoba, tempat penjualan, dan penangkapan yang tinggi",
    "created_at":"2025-11-13 09:59:19.601936",
    "is_active":true
  },
  "0134afd1-584a-4d3d-8c01-72c6ea74cd1e":{
    "id":"0134afd1-584a-4d3d-8c01-72c6ea74cd1e",
    "name":"Gampong Pasie Beurandeh, Kec. Batee, Kab. Piddie",
    "address":"Gampong Pasie Beurandeh, Kec. Batee, Kab. Piddie",
    "lat":5.4411548,
    "lon":95.8960738,
    "radius":2000.0,
    "poi_type":"other",
    "description":"Kelurahan rawan narkoba, tempat penjualan, dan penangkapan yang tinggi",
    "created_at":"2025-11-13 09:59:19.601954",
    "is_active":true
  },
  "a943b409-deb8-4229-9597-7a3983e020d6":{
    "id":"a943b409-deb8-4229-9597-7a3983e020d6",
    "name":"Gampong Blang Panyang, Kec. Muara Satu, Kota Lhokseumawe",
    "address":"Gampong Blang Panyang, Kec. Muara Satu, Kota Lhokseumawe",
    "lat":5.2062139,
    "lon":97.1022942,
    "radius":2000.0,
    "poi_type":"other",
    "description":"Kelurahan rawan narkoba, tempat penjualan, dan penangkapan yang tinggi",
    "created_at":"2025-11-13 09:59:19.601971",
    "is_active":true
  },
  "3290ef20-b601-4717-a155-4108d6dac9e1":{
    "id":"3290ef20-b601-4717-a155-4108d6dac9e1",
    "name":"Gampong Padang Sakti, Kec. Muara Satu, Kota Lhokseumawe",
    "address":"Gampong Padang Sakti, Kec. Muara Satu, Kota Lhokseumawe",
    "lat":5.1948712,
    "lon":97.0740468,
    "radius":2000.0,
    "poi_type":"other",
    "description":"Kelurahan rawan narkoba, tempat penjualan, dan penangkapan yang tinggi",
    "created_at":"2025-11-13 09:59:19.601989",
    "is_active":true
  },
  "38a2af73-0575-4eb7-aca4-643eb0f82ae8":{
    "id":"38a2af73-0575-4eb7-aca4-643eb0f82ae8",
    "name":"Gampong Meunasah Alue, Kec. Muara Dua, Kota Lhokseumawe",
    "address":"Gampong Meunasah Alue, Kec. Muara Dua, Kota Lhokseumawe",
    "lat":5.1789067,
    "lon":97.1117126,
    "radius":2000.0,
    "poi_type":"other",
    "description":"Kelurahan rawan narkoba, tempat penjualan, dan penangkapan yang tinggi",
    "created_at":"2025-11-13 09:59:19.602006",
    "is_active":true
  },
  "6922f3be-0f8e-4c77-9db8-ecc66214dffd":{
    "id":"6922f3be-0f8e-4c77-9db8-ecc66214dffd",
    "name":"Gampong Moen Keuleyu, Kec. Ganda Pura, Kab. Bireuen",
    "address":"Gampong Moen Keuleyu, Kec. Ganda Pura, Kab. Bireuen",
    "lat":5.2515573,
    "lon":96.8582818,
    "radius":2000.0,
    "poi_type":"other",
    "description":"Kelurahan rawan narkoba, tempat penjualan, dan penangkapan yang tinggi",
    "created_at":"2025-11-13 09:59:19.602024",
    "is_active":true
  },
  "4a3a939e-78c0-47a0-b83a-4aa214151fc7":{
    "id":"4a3a939e-78c0-47a0-b83a-4aa214151fc7",
    "name":"Gampong Alue Buya Pasie, Kec. Jangka, Kab. Bireuen",
    "address":"Gampong Alue Buya Pasie, Kec. Jangka, Kab. Bireuen",
    "lat":5.2489853,
    "lon":96.7507375,
    "radius":2000.0,
    "poi_type":"other",
    "description":"Kelurahan rawan narkoba, tempat penjualan, dan penangkapan yang tinggi",
    "created_at":"2025-11-13 09:59:19.602041",
    "is_active":true
  },
  "ace4b8ba-05df-4e21-94a1-5a7a46e008fe":{
    "id":"ace4b8ba-05df-4e21-94a1-5a7a46e008fe",
    "name":"Gampong Kota Kuala Simpang, Kec. Kota Kuala Simpang, Kab. Aceh Tamiang",
    "address":"Gampong Kota Kuala Simpang, Kec. Kota Kuala Simpang, Kab. Aceh Tamiang",
    "lat":4.283777,
    "lon":98.0581119,
    "radius":2000.0,
    "poi_type":"other",
    "description":"Kelurahan rawan narkoba, tempat penjualan, dan penangkapan yang tinggi",
    "created_at":"2025-11-13 09:59:19.602058",
    "is_active":true
  },
  "583fe1f0-4cbc-4779-aee8-18b2e09f7d3f":{
    "id":"583fe1f0-4cbc-4779-aee8-18b2e09f7d3f",
    "name":"Gampong Bakau Hulu, Kec. Labuhan Haji, Kab. Aceh Selatan",
    "address":"Gampong Bakau Hulu, Kec. Labuhan Haji, Kab. Aceh Selatan",
    "lat":3.5519774,
    "lon":97.0202754,
    "radius":2000.0,
    "poi_type":"other",
    "description":"Kelurahan rawan narkoba, tempat penjualan, dan penangkapan yang tinggi",
    "created_at":"2025-11-13 09:59:19.602076",
    "is_active":true
  },
  "e1efc4f7-4f77-4a6c-8aa3-3d57af4d2b93":{
    "id":"e1efc4f7-4f77-4a6c-8aa3-3d57af4d2b93",
    "name":"Gampong Tibang, Kec. Syiah Kuala, Kota Banda Aceh",
    "address":"Gampong Tibang, Kec. Syiah Kuala, Kota Banda Aceh",
    "lat":5.5873897,
    "lon":95.3442408,
    "radius":2000.0,
    "poi_type":"other",
    "description":"Kelurahan rawan narkoba, tempat penjualan, dan penangkapan yang tinggi",
    "created_at":"2025-11-13 09:59:19.602093",
    "is_active":true
  },
  "3adb17b7-dce7-4577-a393-b6cd20e3def5":{
    "id":"3adb17b7-dce7-4577-a393-b6cd20e3def5",
    "name":"Gampong Paya Bujok Blang Pasee, Kec. Langsa Kota, Kota Langsa",
    "address":"Gampong Paya Bujok Blang Pasee, Kec. Langsa Kota, Kota Langsa",
    "lat":4.4745603,
    "lon":97.9654164,
    "radius":2000.0,
    "poi_type":"other",
    "description":"Kelurahan rawan narkoba, tempat penjualan, dan penangkapan yang tinggi",
    "created_at":"2025-11-13 09:59:19.602111",
    "is_active":true
  },
  "c1ebbcd9-be82-4f0f-840f-bfb54177d9b1":{
    "id":"c1ebbcd9-be82-4f0f-840f-bfb54177d9b1",
    "name":"Gampong Blang Seunibong, Kec. Langsa Kota, Kota Langsa",
    "address":"Gampong Blang Seunibong, Kec. Langsa Kota, Kota Langsa",
    "lat":4.4734956,
    "lon":97.9752937,
    "radius":2000.0,
    "poi_type":"other",
    "description":"Kelurahan rawan narkoba, tempat penjualan, dan penangkapan yang tinggi",
    "created_at":"2025-11-13 09:59:19.602128",
    "is_active":true
  },
  "6b38b16e-27f6-47b7-afce-574922d30cad":{
    "id":"6b38b16e-27f6-47b7-afce-574922d30cad",
    "name":"Gampong Grong Grong Capa, Kec. Ulim, Kab. Pidie Jaya",
    "address":"Gampong Grong Grong Capa, Kec. Ulim, Kab. Pidie Jaya",
    "lat":5.2381562,
    "lon":96.2946997,
    "radius":2000.0,
    "poi_type":"other",
    "description":"Kelurahan rawan narkoba, tempat penjualan, dan penangkapan yang tinggi",
    "created_at":"2025-11-13 09:59:19.602150",
    "is_active":true
  },
  "b663b076-d6da-4fe3-bc7c-3f8425d41c58":{
    "id":"b663b076-d6da-4fe3-bc7c-3f8425d41c58",
    "name":"Gampong Ekan, Kec. Pining Kab. Gayo Luwes",
    "address":"Gampong Ekan, Kec. Pining Kab. Gayo Luwes",
    "lat":3.8907708,
    "lon":97.7634019,
    "radius":2000.0,
    "poi_type":"other",
    "description":"Kelurahan rawan narkoba, tempat penjualan, dan penangkapan yang tinggi",
    "created_at":"2025-11-13 09:59:19.602172",
    "is_active":true
  },
  "b172ec94-4fa9-461a-be97-0ac829064342":{
    "id":"b172ec94-4fa9-461a-be97-0ac829064342",
    "name":"Gampong Cot Mamplang, Kec. Muara Dua, Kota Lhokseumawe",
    "address":"Gampong Cot Mamplang, Kec. Muara Dua, Kota Lhokseumawe",
    "lat":5.1752013,
    "lon":97.1281441,
    "radius":2000.0,
    "poi_type":"other",
    "description":"Kelurahan rawan narkoba, tempat penjualan, dan penangkapan yang tinggi",
    "created_at":"2025-11-13 09:59:19.602191",
    "is_active":true
  },
  "585d3d55-14ad-42cf-a626-f9617e6afd22":{
    "id":"585d3d55-14ad-42cf-a626-f9617e6afd22",
    "name":"Gampong Ujong Blang, Kec. Banda Sakti, Kota Lhokseumawe",
    "address":"Gampong Ujong Blang, Kec. Banda Sakti, Kota Lhokseumawe",
    "lat":5.2060622,
    "lon":97.1157495,
    "radius":2000.0,
    "poi_type":"other",
    "description":"Kelurahan rawan narkoba, tempat penjualan, dan penangkapan yang tinggi",
    "created_at":"2025-11-13 09:59:19.602209",
    "is_active":true
  },
  "9fd55b39-4e47-43ca-8da3-2a2f876bf688":{
    "id":"9fd55b39-4e47-43ca-8da3-2a2f876bf688",
    "name":"Gampong Kuala Jangka Mesjid, Kec. Jangka, Kab. Bireuen",
    "address":"Gampong Kuala Jangka Mesjid, Kec. Jangka, Kab. Bireuen",
    "lat":5.2564519,
    "lon":96.7801849,
    "radius":2000.0,
    "poi_type":"other",
    "description":"Kelurahan rawan narkoba, tempat penjualan, dan penangkapan yang tinggi",
    "created_at":"2025-11-13 09:59:19.602226",
    "is_active":true
  },
  "94a8fb46-b2ec-47e4-96e5-67d8d738a51e":{
    "id":"94a8fb46-b2ec-47e4-96e5-67d8d738a51e",
    "name":"Gampong Kuala Ceurape, Kec. Jangka, Kab. Bireuen",
    "address":"Gampong Kuala Ceurape, Kec. Jangka, Kab. Bireuen",
    "lat":5.2661314,
    "lon":96.8444803,
    "radius":2000.0,
    "poi_type":"other",
    "description":"Kelurahan rawan narkoba, tempat penjualan, dan penangkapan yang tinggi",
    "created_at":"2025-11-13 09:59:19.602244",
    "is_active":true
  },
  "f56609cb-2ea7-4814-91c2-2e7d7d9e4d01":{
    "id":"f56609cb-2ea7-4814-91c2-2e7d7d9e4d01",
    "name":"Gampong Mesjid, Kec. Batee, Kab. Pidie",
    "address":"Gampong Mesjid, Kec. Batee, Kab. Pidie",
    "lat":5.4059261,
    "lon":95.900034,
    "radius":2000.0,
    "poi_type":"other",
    "description":"Kelurahan rawan narkoba, tempat penjualan, dan penangkapan yang tinggi",
    "created_at":"2025-11-13 09:59:19.602261",
    "is_active":true
  },
  "fb7654db-ac1d-4c0a-a05f-b465356a27e8":{
    "id":"fb7654db-ac1d-4c0a-a05f-b465356a27e8",
    "name":"Kel. Lalang, Kec. Medan Sunggal, Medan",
    "address":"Kel. Lalang, Kec. Medan Sunggal, Medan",
    "lat":3.6001164,
    "lon":98.606855,
    "radius":2000.0,
    "poi_type":"other",
    "description":"Kelurahan rawan narkoba, tempat penjualan, dan penangkapan yang tinggi",
    "created_at":"2025-11-13 09:59:19.602279",
    "is_active":true
  },
  "79493e4c-e050-4a7d-90c8-24d6f4cd47cb":{
    "id":"79493e4c-e050-4a7d-90c8-24d6f4cd47cb",
    "name":"Kel. Babura, Kec. Medan Sunggal, Medan",
    "address":"Kel. Babura, Kec. Medan Sunggal, Medan",
    "lat":3.5819663,
    "lon":98.6476835,
    "radius":2000.0,
    "poi_type":"other",
    "description":"Kelurahan rawan narkoba, tempat penjualan, dan penangkapan yang tinggi",
    "created_at":"2025-11-13 09:59:19.602296",
    "is_active":true
  },
  "45ff3589-0686-4d3c-bad6-864c9120b306":{
    "id":"45ff3589-0686-4d3c-bad6-864c9120b306",
    "name":"Kel. Sunggal, Kec. Medan Sunggal, Medan",
    "address":"Kel. Sunggal, Kec. Medan Sunggal, Medan",
    "lat":3.5746553,
    "lon":98.6110665,
    "radius":2000.0,
    "poi_type":"other",
    "description":"Kelurahan rawan narkoba, tempat penjualan, dan penangkapan yang tinggi",
    "created_at":"2025-11-13 09:59:19.602314",
    "is_active":true
  },
  "599f6da8-41c2-441b-88bf-85954fe6fc68":{
    "id":"599f6da8-41c2-441b-88bf-85954fe6fc68",
    "name":"Kel. Sei Sikambing, Kec. Medan Sunggal, Medan",
    "address":"Kel. Sei Sikambing, Kec. Medan Sunggal, Medan",
    "lat":3.594647,
    "lon":98.6311865,
    "radius":2000.0,
    "poi_type":"other",
    "description":"Kelurahan rawan narkoba, tempat penjualan, dan penangkapan yang tinggi",
    "created_at":"2025-11-13 09:59:19.602331",
    "is_active":true
  },
  "ab0ecb13-0b91-4e25-8bf0-edd252a4a30e":{
    "id":"ab0ecb13-0b91-4e25-8bf0-edd252a4a30e",
    "name":"Kel. Amplas, Kec. Medan Amplas, Medan",
    "address":"Kel. Amplas, Kec. Medan Amplas, Medan",
    "lat":3.5503859,
    "lon":98.6984166,
    "radius":2000.0,
    "poi_type":"other",
    "description":"Kelurahan rawan narkoba, tempat penjualan, dan penangkapan yang tinggi",
    "created_at":"2025-11-13 09:59:19.602348",
    "is_active":true
  },
  "1b38917f-493f-41e5-8f0f-504d7d0db34b":{
    "id":"1b38917f-493f-41e5-8f0f-504d7d0db34b",
    "name":"Kel. Harjosari I, Kec. Medan Amplas, Medan",
    "address":"Kel. Harjosari I, Kec. Medan Amplas, Medan",
    "lat":3.5426058,
    "lon":98.7068269,
    "radius":2000.0,
    "poi_type":"other",
    "description":"Kelurahan rawan narkoba, tempat penjualan, dan penangkapan yang tinggi",
    "created_at":"2025-11-13 09:59:19.602365",
    "is_active":true
  },
  "94028e1c-7c0a-4094-a10c-730f55ca110c":{
    "id":"94028e1c-7c0a-4094-a10c-730f55ca110c",
    "name":"Desa Sopo Batu, Kecamatan Penyabungan, Kab. Mandailing Natal",
    "address":"Desa Sopo Batu, Kecamatan Penyabungan, Kab. Mandailing Natal",
    "lat":0.888232,
    "lon":99.6174332,
    "radius":2000.0,
    "poi_type":"other",
    "description":"Kelurahan rawan narkoba, tempat penjualan, dan penangkapan yang tinggi",
    "created_at":"2025-11-13 09:59:19.602383",
    "is_active":true
  },
  "bea9e257-56cc-4be3-bd15-4388d4f7e761":{
    "id":"bea9e257-56cc-4be3-bd15-4388d4f7e761",
    "name":"Desa Siobon, Kecamatan Penyabungan, Kab. Mandailing Natal",
    "address":"Desa Siobon, Kecamatan Penyabungan, Kab. Mandailing Natal",
    "lat":0.9021503,
    "lon":99.6898316,
    "radius":2000.0,
    "poi_type":"other",
    "description":"Kelurahan rawan narkoba, tempat penjualan, dan penangkapan yang tinggi",
    "created_at":"2025-11-13 09:59:19.602400",
    "is_active":true
  },
  "55f42307-e875-4314-8bf1-37a1907a058f":{
    "id":"55f42307-e875-4314-8bf1-37a1907a058f",
    "name":"Kel. Huta Siantar, Kecamatan Penyabungan, Kab. Mandailing Natal",
    "address":"Kel. Huta Siantar, Kecamatan Penyabungan, Kab. Mandailing Natal",
    "lat":0.8671512,
    "lon":99.586822,
    "radius":2000.0,
    "poi_type":"other",
    "description":"Kelurahan rawan narkoba, tempat penjualan, dan penangkapan yang tinggi",
    "created_at":"2025-11-13 09:59:19.602418",
    "is_active":true
  },
  "17d74b6c-cb10-4469-855c-cb8ed01eacc7":{
    "id":"17d74b6c-cb10-4469-855c-cb8ed01eacc7",
    "name":"Desa Rantau Panjang, Pantai Labu Pakan, Kec. Pantai Labu Pakan, Deli Serdang",
    "address":"Desa Rantau Panjang, Pantai Labu Pakan, Kec. Pantai Labu Pakan, Deli Serdang",
    "lat":3.6877336,
    "lon":98.854195,
    "radius":2000.0,
    "poi_type":"other",
    "description":"Kelurahan rawan narkoba, tempat penjualan, dan penangkapan yang tinggi",
    "created_at":"2025-11-13 09:59:19.602435",
    "is_active":true
  },
  "174d313b-daef-45af-85e3-50aaf2092cc6":{
    "id":"174d313b-daef-45af-85e3-50aaf2092cc6",
    "name":"Desa Tembung, Kec. Percut Sei Tuan, Kab. Deli Serdang",
    "address":"Desa Tembung, Kec. Percut Sei Tuan, Kab. Deli Serdang",
    "lat":3.6206229,
    "lon":98.7294571,
    "radius":2000.0,
    "poi_type":"other",
    "description":"Kelurahan rawan narkoba, tempat penjualan, dan penangkapan yang tinggi",
    "created_at":"2025-11-13 09:59:19.602453",
    "is_active":true
  },
  "aa1d71a2-8627-4264-b0e3-0661abbe7cc9":{
    "id":"aa1d71a2-8627-4264-b0e3-0661abbe7cc9",
    "name":"Desa Hutan, Kec. Percut Sei Tuan, Kab. Deli Serdang",
    "address":"Desa Hutan, Kec. Percut Sei Tuan, Kab. Deli Serdang",
    "lat":3.5947281,
    "lon":98.7536237,
    "radius":2000.0,
    "poi_type":"other",
    "description":"Kelurahan rawan narkoba, tempat penjualan, dan penangkapan yang tinggi",
    "created_at":"2025-11-13 09:59:19.602470",
    "is_active":true
  },
  "d7ff30a6-c8c3-4d4b-ace0-7881574e050d":{
    "id":"d7ff30a6-c8c3-4d4b-ace0-7881574e050d",
    "name":"Desa Bandar Khalipah, Kec. Percut Sei Tuan, Kab. Deli Serdang",
    "address":"Desa Bandar Khalipah, Kec. Percut Sei Tuan, Kab. Deli Serdang",
    "lat":3.6373487,
    "lon":98.7508702,
    "radius":2000.0,
    "poi_type":"other",
    "description":"Kelurahan rawan narkoba, tempat penjualan, dan penangkapan yang tinggi",
    "created_at":"2025-11-13 09:59:19.602487",
    "is_active":true
  },
  "d9cbabc3-0eb9-4df7-9231-b31076bc70e7":{
    "id":"d9cbabc3-0eb9-4df7-9231-b31076bc70e7",
    "name":"Desa Tegal Sari Mandala II, Kec. Percut Sei Tuan, Kab. Deli Serdang",
    "address":"Desa Tegal Sari Mandala II, Kec. Percut Sei Tuan, Kab. Deli Serdang",
    "lat":3.587506,
    "lon":98.7233402,
    "radius":2000.0,
    "poi_type":"other",
    "description":"Kelurahan rawan narkoba, tempat penjualan, dan penangkapan yang tinggi",
    "created_at":"2025-11-13 09:59:19.602509",
    "is_active":true
  },
  "49a65065-df74-47e2-8e42-a6a0188d1645":{
    "id":"49a65065-df74-47e2-8e42-a6a0188d1645",
    "name":"Desa Sampali, Kec. Percut Sei Tuan, Kab. Deli Serdang",
    "address":"Desa Sampali, Kec. Percut Sei Tuan, Kab. Deli Serdang",
    "lat":3.6652259,
    "lon":98.7205877,
    "radius":2000.0,
    "poi_type":"other",
    "description":"Kelurahan rawan narkoba, tempat penjualan, dan penangkapan yang tinggi",
    "created_at":"2025-11-13 09:59:19.602527",
    "is_active":true
  },
  "9c931dda-5bca-4ef1-9584-e1777d56d348":{
    "id":"9c931dda-5bca-4ef1-9584-e1777d56d348",
    "name":"Desa Sei Rotan, Kec. Percut Sei Tuan, Kab. Deli Serdang",
    "address":"Desa Sei Rotan, Kec. Percut Sei Tuan, Kab. Deli Serdang",
    "lat":3.6269477,
    "lon":98.7894287,
    "radius":2000.0,
    "poi_type":"other",
    "description":"Kelurahan rawan narkoba, tempat penjualan, dan penangkapan yang tinggi",
    "created_at":"2025-11-13 09:59:19.602545",
    "is_active":true
  },
  "11cedf3a-066d-4157-bec6-885031991b40":{
    "id":"11cedf3a-066d-4157-bec6-885031991b40",
    "name":"Kel. Padang Bulan, Kec. Medan Baru, Kota Medan",
    "address":"Kel. Padang Bulan, Kec. Medan Baru, Kota Medan",
    "lat":3.5630956,
    "lon":98.6573084,
    "radius":2000.0,
    "poi_type":"other",
    "description":"Kelurahan rawan narkoba, tempat penjualan, dan penangkapan yang tinggi",
    "created_at":"2025-11-13 09:59:19.602562",
    "is_active":true
  },
  "786be175-abf9-4855-b9c2-8cf5281ffaf1":{
    "id":"786be175-abf9-4855-b9c2-8cf5281ffaf1",
    "name":"Kel. Petisah, Kec. Medan Baru, Kota Medan",
    "address":"Kel. Petisah, Kec. Medan Baru, Kota Medan",
    "lat":3.5880317,
    "lon":98.6683097,
    "radius":2000.0,
    "poi_type":"other",
    "description":"Kelurahan rawan narkoba, tempat penjualan, dan penangkapan yang tinggi",
    "created_at":"2025-11-13 09:59:19.602579",
    "is_active":true
  },
  "4a8c49e3-9bc0-4d88-9647-87012bf4abc7":{
    "id":"4a8c49e3-9bc0-4d88-9647-87012bf4abc7",
    "name":"Kel. Dwi Kora, Kec. Medan Helvetia, Kota Medan",
    "address":"Kel. Dwi Kora, Kec. Medan Helvetia, Kota Medan",
    "lat":3.6010246,
    "lon":98.6366446,
    "radius":2000.0,
    "poi_type":"other",
    "description":"Kelurahan rawan narkoba, tempat penjualan, dan penangkapan yang tinggi",
    "created_at":"2025-11-13 09:59:19.602597",
    "is_active":true
  },
  "32be6da9-8a21-416e-affe-0e5bb6161086":{
    "id":"32be6da9-8a21-416e-affe-0e5bb6161086",
    "name":"Kel. Tanjung Gusta, Kec. Medan Helvetia, Kota Medan",
    "address":"Kel. Tanjung Gusta, Kec. Medan Helvetia, Kota Medan",
    "lat":3.6085977,
    "lon":98.6133188,
    "radius":2000.0,
    "poi_type":"other",
    "description":"Kelurahan rawan narkoba, tempat penjualan, dan penangkapan yang tinggi",
    "created_at":"2025-11-13 09:59:19.602614",
    "is_active":true
  },
  "37100709-c67f-4521-bf90-73d268fdfffd":{
    "id":"37100709-c67f-4521-bf90-73d268fdfffd",
    "name":"Kel. Gading, Kec. Datuk Bandar, Kota Tanjung Balai",
    "address":"Kel. Gading, Kec. Datuk Bandar, Kota Tanjung Balai",
    "lat":2.931782,
    "lon":99.7929672,
    "radius":2000.0,
    "poi_type":"other",
    "description":"Kelurahan rawan narkoba, tempat penjualan, dan penangkapan yang tinggi",
    "created_at":"2025-11-13 09:59:19.602632",
    "is_active":true
  },
  "a41ab3be-ac52-4d6b-8931-4885a27a5e06":{
    "id":"a41ab3be-ac52-4d6b-8931-4885a27a5e06",
    "name":"Kel. Perjuangan, Kecamatan Teluk Nibung, Kota Tanjung Balai",
    "address":"Kel. Perjuangan, Kecamatan Teluk Nibung, Kota Tanjung Balai",
    "lat":2.9993643,
    "lon":99.8166783,
    "radius":2000.0,
    "poi_type":"other",
    "description":"Kelurahan rawan narkoba, tempat penjualan, dan penangkapan yang tinggi",
    "created_at":"2025-11-13 09:59:19.602649",
    "is_active":true
  },
  "80a70b80-bc59-4c9d-a734-6b24c39a93e9":{
    "id":"80a70b80-bc59-4c9d-a734-6b24c39a93e9",
    "name":"Kelurahan Banjar, Kecamatan Siantar Barat, Kota Pematang Siantar",
    "address":"Kelurahan Banjar, Kecamatan Siantar Barat, Kota Pematang Siantar",
    "lat":2.961476,
    "lon":99.0584911,
    "radius":2000.0,
    "poi_type":"other",
    "description":"Kelurahan rawan narkoba, tempat penjualan, dan penangkapan yang tinggi",
    "created_at":"2025-11-13 09:59:19.602673",
    "is_active":true
  },
  "0d90c999-8592-4984-84e7-30c84ddb5bed":{
    "id":"0d90c999-8592-4984-84e7-30c84ddb5bed",
    "name":"(Kp. Juani, Kp. Tempel, Kp. Banten) Kelurahan Simpang Tiga Pekan, Kecamatan Perbaungan, Kab. Serdang Bedagai",
    "address":"(Kp. Juani, Kp. Tempel, Kp. Banten) Kelurahan Simpang Tiga Pekan, Kecamatan Perbaungan, Kab. Serdang Bedagai",
    "lat":3.5679569,
    "lon":98.9590765,
    "radius":2000.0,
    "poi_type":"other",
    "description":"Kelurahan rawan narkoba, tempat penjualan, dan penangkapan yang tinggi",
    "created_at":"2025-11-13 09:59:19.602692",
    "is_active":true
  },
  "efa488ab-ae94-4521-a039-b3fdb8691735":{
    "id":"efa488ab-ae94-4521-a039-b3fdb8691735",
    "name":"Kp. Sipirok, Desa Citaman Jernih, Kecamatan Perbaungan, Kab. Serdang Bedagai",
    "address":"Kp. Sipirok, Desa Citaman Jernih, Kecamatan Perbaungan, Kab. Serdang Bedagai",
    "lat":3.564003,
    "lon":98.953516,
    "radius":2000.0,
    "poi_type":"other",
    "description":"Kelurahan rawan narkoba, tempat penjualan, dan penangkapan yang tinggi",
    "created_at":"2025-11-13 09:59:19.602710",
    "is_active":true
  },
  "bf623108-9b3d-4009-8bc9-69eab31ba06f":{
    "id":"bf623108-9b3d-4009-8bc9-69eab31ba06f",
    "name":"Simpang Obang Abing, Desa Bengkel, Kecamatan Perbaungan, Kab. Serdang Bedagai",
    "address":"Simpang Obang Abing, Desa Bengkel, Kecamatan Perbaungan, Kab. Serdang Bedagai",
    "lat":3.5545675,
    "lon":99.0068237,
    "radius":2000.0,
    "poi_type":"other",
    "description":"Kelurahan rawan narkoba, tempat penjualan, dan penangkapan yang tinggi",
    "created_at":"2025-11-13 09:59:19.602727",
    "is_active":true
  },
  "0c990be8-c19e-41b8-ad61-b0ea2cf86666":{
    "id":"0c990be8-c19e-41b8-ad61-b0ea2cf86666",
    "name":"Kelurahan Pasar, Kota Gunung Sitoli",
    "address":"Kelurahan Pasar, Kota Gunung Sitoli",
    "lat":1.2813087,
    "lon":97.6181995,
    "radius":2000.0,
    "poi_type":"other",
    "description":"Kelurahan rawan narkoba, tempat penjualan, dan penangkapan yang tinggi",
    "created_at":"2025-11-13 09:59:19.602745",
    "is_active":true
  },
  "8a18db01-093a-4880-98b3-ce6100298ba1":{
    "id":"8a18db01-093a-4880-98b3-ce6100298ba1",
    "name":"Kelurahan Perdagangan I, Kec. Bandar, Kab. Simalungun",
    "address":"Kelurahan Perdagangan I, Kec. Bandar, Kab. Simalungun",
    "lat":3.1707178,
    "lon":99.3284683,
    "radius":2000.0,
    "poi_type":"other",
    "description":"Kelurahan rawan narkoba, tempat penjualan, dan penangkapan yang tinggi",
    "created_at":"2025-11-13 09:59:19.602762",
    "is_active":true
  },
  "b0d86899-9ae8-4aef-ad77-8ef4b0e01132":{
    "id":"b0d86899-9ae8-4aef-ad77-8ef4b0e01132",
    "name":"Kel. Pulo Brayan Kota, Kec. Medan Barat, Medan",
    "address":"Kel. Pulo Brayan Kota, Kec. Medan Barat, Medan",
    "lat":3.6285642,
    "lon":98.669381,
    "radius":2000.0,
    "poi_type":"other",
    "description":"Kelurahan rawan narkoba, tempat penjualan, dan penangkapan yang tinggi",
    "created_at":"2025-11-13 09:59:19.602780",
    "is_active":true
  },
  "bd5abc13-d425-4cf5-861f-64ad2db08e85":{
    "id":"bd5abc13-d425-4cf5-861f-64ad2db08e85",
    "name":"Kel. Kesawan, Kec. Medan Barat, Medan",
    "address":"Kel. Kesawan, Kec. Medan Barat, Medan",
    "lat":3.594228,
    "lon":98.6751864,
    "radius":2000.0,
    "poi_type":"other",
    "description":"Kelurahan rawan narkoba, tempat penjualan, dan penangkapan yang tinggi",
    "created_at":"2025-11-13 09:59:19.602797",
    "is_active":true
  },
  "6cc30d63-76c3-470d-a7f8-6df8c63c7f9c":{
    "id":"6cc30d63-76c3-470d-a7f8-6df8c63c7f9c",
    "name":"Kel. Pasar Baru, Kec. Medan Kota, Medan",
    "address":"Kel. Pasar Baru, Kec. Medan Kota, Medan",
    "lat":3.5834982,
    "lon":98.6841269,
    "radius":2000.0,
    "poi_type":"other",
    "description":"Kelurahan rawan narkoba, tempat penjualan, dan penangkapan yang tinggi",
    "created_at":"2025-11-13 09:59:19.602815",
    "is_active":true
  },
  "c73aebe5-0eb5-4256-84a3-968d933bec03":{
    "id":"c73aebe5-0eb5-4256-84a3-968d933bec03",
    "name":"Kel. Teladan Barat, Kec. Medan Kota, Medan",
    "address":"Kel. Teladan Barat, Kec. Medan Kota, Medan",
    "lat":3.5664991,
    "lon":98.6944443,
    "radius":2000.0,
    "poi_type":"other",
    "description":"Kelurahan rawan narkoba, tempat penjualan, dan penangkapan yang tinggi",
    "created_at":"2025-11-13 09:59:19.602832",
    "is_active":true
  },
  "a14d3690-a99e-4f5f-9216-333369a49cb4":{
    "id":"a14d3690-a99e-4f5f-9216-333369a49cb4",
    "name":"Kel. Bantan, Kec. Medan Tembung, Medan",
    "address":"Kel. Bantan, Kec. Medan Tembung, Medan",
    "lat":3.5937803,
    "lon":98.7219639,
    "radius":2000.0,
    "poi_type":"other",
    "description":"Kelurahan rawan narkoba, tempat penjualan, dan penangkapan yang tinggi",
    "created_at":"2025-11-13 09:59:19.602862",
    "is_active":true
  },
  "80a798e4-af44-46d6-a172-d8ed4e2e70bd":{
    "id":"80a798e4-af44-46d6-a172-d8ed4e2e70bd",
    "name":"Kel. Tembung, Kec. Medan Tembung, Medan",
    "address":"Kel. Tembung, Kec. Medan Tembung, Medan",
    "lat":3.5961526,
    "lon":98.7357274,
    "radius":2000.0,
    "poi_type":"other",
    "description":"Kelurahan rawan narkoba, tempat penjualan, dan penangkapan yang tinggi",
    "created_at":"2025-11-13 09:59:19.602886",
    "is_active":true
  },
  "a952d11d-7056-4ab0-8197-f8e7b92af85f":{
    "id":"a952d11d-7056-4ab0-8197-f8e7b92af85f",
    "name":"Kel. Gaharu, Kec. Medan Timur, Medan",
    "address":"Kel. Gaharu, Kec. Medan Timur, Medan",
    "lat":3.601717,
    "lon":98.6779372,
    "radius":2000.0,
    "poi_type":"other",
    "description":"Kelurahan rawan narkoba, tempat penjualan, dan penangkapan yang tinggi",
    "created_at":"2025-11-13 09:59:19.602905",
    "is_active":true
  },
  "d59fb7e5-d9c6-42ee-8ed9-a38f5eb06a01":{
    "id":"d59fb7e5-d9c6-42ee-8ed9-a38f5eb06a01",
    "name":"Kel. Durian, Kec. Medan Timur, Medan",
    "address":"Kel. Durian, Kec. Medan Timur, Medan",
    "lat":3.6067014,
    "lon":98.6806881,
    "radius":2000.0,
    "poi_type":"other",
    "description":"Kelurahan rawan narkoba, tempat penjualan, dan penangkapan yang tinggi",
    "created_at":"2025-11-13 09:59:19.602923",
    "is_active":true
  },
  "579f19d9-5692-4444-ba3f-d0894e4b4fbe":{
    "id":"579f19d9-5692-4444-ba3f-d0894e4b4fbe",
    "name":"Kel. Madras Hulu, Kec. Medan Polonia, Medan",
    "address":"Kel. Madras Hulu, Kec. Medan Polonia, Medan",
    "lat":3.579227,
    "lon":98.6724356,
    "radius":2000.0,
    "poi_type":"other",
    "description":"Kelurahan rawan narkoba, tempat penjualan, dan penangkapan yang tinggi",
    "created_at":"2025-11-13 09:59:19.602941",
    "is_active":true
  },
  "4d4e0b15-4a25-4caa-a3b6-8ad522c0c130":{
    "id":"4d4e0b15-4a25-4caa-a3b6-8ad522c0c130",
    "name":"Kel. Polonia, Kec. Medan Polonia, Medan",
    "address":"Kel. Polonia, Kec. Medan Polonia, Medan",
    "lat":3.5642564,
    "lon":98.6669345,
    "radius":2000.0,
    "poi_type":"other",
    "description":"Kelurahan rawan narkoba, tempat penjualan, dan penangkapan yang tinggi",
    "created_at":"2025-11-13 09:59:19.602962",
    "is_active":true
  },
  "ae2b1716-d99d-4626-b2ec-c4def274798a":{
    "id":"ae2b1716-d99d-4626-b2ec-c4def274798a",
    "name":"Kel. Belawan I, Kec. Medan Belawan, Kota Medan",
    "address":"Kel. Belawan I, Kec. Medan Belawan, Kota Medan",
    "lat":3.7848263,
    "lon":98.6889415,
    "radius":2000.0,
    "poi_type":"other",
    "description":"Kelurahan rawan narkoba, tempat penjualan, dan penangkapan yang tinggi",
    "created_at":"2025-11-13 09:59:19.602980",
    "is_active":true
  },
  "a11bdb00-388f-4243-94f2-c1d46031b61a":{
    "id":"a11bdb00-388f-4243-94f2-c1d46031b61a",
    "name":"Kel. Tanjung Balai Kota III, Kecamatan Tanjung Balai Utara, Kota Tanjung Balai",
    "address":"Kel. Tanjung Balai Kota III, Kecamatan Tanjung Balai Utara, Kota Tanjung Balai",
    "lat":2.9680774,
    "lon":99.799243,
    "radius":2000.0,
    "poi_type":"other",
    "description":"Kelurahan rawan narkoba, tempat penjualan, dan penangkapan yang tinggi",
    "created_at":"2025-11-13 09:59:19.602998",
    "is_active":true
  },
  "ccd35622-3fb7-4a17-a165-32607da9a7bf":{
    "id":"ccd35622-3fb7-4a17-a165-32607da9a7bf",
    "name":"Kelurahan Sijambi, Kec. Datuk Bandar, Kota Tanjung Balai",
    "address":"Kelurahan Sijambi, Kec. Datuk Bandar, Kota Tanjung Balai",
    "lat":2.9517417,
    "lon":99.7650804,
    "radius":2000.0,
    "poi_type":"other",
    "description":"Kelurahan rawan narkoba, tempat penjualan, dan penangkapan yang tinggi",
    "created_at":"2025-11-13 09:59:19.603015",
    "is_active":true
  },
  "a6100ca7-e7a8-4cdb-bfdb-6b5e503a045a":{
    "id":"a6100ca7-e7a8-4cdb-bfdb-6b5e503a045a",
    "name":"Desa Rao rao Dolok, Kecamatan Tambangan, Kab. Mandailing Natal",
    "address":"Desa Rao rao Dolok, Kecamatan Tambangan, Kab. Mandailing Natal",
    "lat":0.7284701,
    "lon":99.6954033,
    "radius":2000.0,
    "poi_type":"other",
    "description":"Kelurahan rawan narkoba, tempat penjualan, dan penangkapan yang tinggi",
    "created_at":"2025-11-13 09:59:19.603032",
    "is_active":true
  },
  "b25b00d0-53fc-43e8-917e-a4ef889bfab6":{
    "id":"b25b00d0-53fc-43e8-917e-a4ef889bfab6",
    "name":"Desa Rao rao Lombang, Kecamatan Tambangan, Kab. Mandailing Natal",
    "address":"Desa Rao rao Lombang, Kecamatan Tambangan, Kab. Mandailing Natal",
    "lat":0.7097642,
    "lon":99.6842603,
    "radius":2000.0,
    "poi_type":"other",
    "description":"Kelurahan rawan narkoba, tempat penjualan, dan penangkapan yang tinggi",
    "created_at":"2025-11-13 09:59:19.603050",
    "is_active":true
  },
  "c201070d-c629-4d34-8264-29f53e949018":{
    "id":"c201070d-c629-4d34-8264-29f53e949018",
    "name":"Desa Simangambat, Kecamatan Tambangan, Kab. Mandailing Natal",
    "address":"Desa Simangambat, Kecamatan Tambangan, Kab. Mandailing Natal",
    "lat":0.7543562,
    "lon":99.6424872,
    "radius":2000.0,
    "poi_type":"other",
    "description":"Kelurahan rawan narkoba, tempat penjualan, dan penangkapan yang tinggi",
    "created_at":"2025-11-13 09:59:19.603067",
    "is_active":true
  },
  "451900f9-6586-47c4-8315-e0d00db9c3df":{
    "id":"451900f9-6586-47c4-8315-e0d00db9c3df",
    "name":"Desa Pardomuan, Kecamatan Panyabugan Timur, Kab. Mandailing Natal",
    "address":"Desa Pardomuan, Kecamatan Panyabugan Timur, Kab. Mandailing Natal",
    "lat":0.7659555,
    "lon":99.6954033,
    "radius":2000.0,
    "poi_type":"other",
    "description":"Kelurahan rawan narkoba, tempat penjualan, dan penangkapan yang tinggi",
    "created_at":"2025-11-13 09:59:19.603084",
    "is_active":true
  },
  "9bc61e92-4a63-4c5e-8416-d9875c41e524":{
    "id":"9bc61e92-4a63-4c5e-8416-d9875c41e524",
    "name":"Desa Huta Tinggi, Kecamatan Panyabugan Timur, Kab. Mandailing Natal",
    "address":"Desa Huta Tinggi, Kecamatan Panyabugan Timur, Kab. Mandailing Natal",
    "lat":0.7283731,
    "lon":99.73999,
    "radius":2000.0,
    "poi_type":"other",
    "description":"Kelurahan rawan narkoba, tempat penjualan, dan penangkapan yang tinggi",
    "created_at":"2025-11-13 09:59:19.603102",
    "is_active":true
  },
  "96193b2c-b7b2-43c0-852e-9911a05f75c3":{
    "id":"96193b2c-b7b2-43c0-852e-9911a05f75c3",
    "name":"Desa Huta Bangun, Kecamatan Panyabugan Timur, Kab. Mandailing Natal",
    "address":"Desa Huta Bangun, Kecamatan Panyabugan Timur, Kab. Mandailing Natal",
    "lat":0.7565053,
    "lon":99.7288412,
    "radius":2000.0,
    "poi_type":"other",
    "description":"Kelurahan rawan narkoba, tempat penjualan, dan penangkapan yang tinggi",
    "created_at":"2025-11-13 09:59:19.603119",
    "is_active":true
  },
  "8cbe74aa-6bfa-4df6-a2a6-39b94de78bc2":{
    "id":"8cbe74aa-6bfa-4df6-a2a6-39b94de78bc2",
    "name":"Desa Banjar Lancat, Kecamatan Panyabugan Timur, Kab. Mandailing Natal",
    "address":"Desa Banjar Lancat, Kecamatan Panyabugan Timur, Kab. Mandailing Natal",
    "lat":0.7329211,
    "lon":99.8013351,
    "radius":2000.0,
    "poi_type":"other",
    "description":"Kelurahan rawan narkoba, tempat penjualan, dan penangkapan yang tinggi",
    "created_at":"2025-11-13 09:59:19.603136",
    "is_active":true
  },
  "7847abc1-757c-446e-a542-a03e94aae003":{
    "id":"7847abc1-757c-446e-a542-a03e94aae003",
    "name":"Desa Padang Laru, Kecamatan Panyabugan Timur, Kab. Mandailing Natal",
    "address":"Desa Padang Laru, Kecamatan Panyabugan Timur, Kab. Mandailing Natal",
    "lat":0.8318597,
    "lon":99.6063006,
    "radius":2000.0,
    "poi_type":"other",
    "description":"Kelurahan rawan narkoba, tempat penjualan, dan penangkapan yang tinggi",
    "created_at":"2025-11-13 09:59:19.603154",
    "is_active":true
  },
  "371916b5-91e5-4736-99d4-c90af7ad8ee5":{
    "id":"371916b5-91e5-4736-99d4-c90af7ad8ee5",
    "name":"Desa Sikara-kara II, Kec. Natal, Kab. Mandailing Natal",
    "address":"Desa Sikara-kara II, Kec. Natal, Kab. Mandailing Natal",
    "lat":0.6335876,
    "lon":99.1428479,
    "radius":2000.0,
    "poi_type":"other",
    "description":"Kelurahan rawan narkoba, tempat penjualan, dan penangkapan yang tinggi",
    "created_at":"2025-11-13 09:59:19.603171",
    "is_active":true
  },
  "d2e6c9c0-f792-4ca2-9737-ca6f51d8f1a8":{
    "id":"d2e6c9c0-f792-4ca2-9737-ca6f51d8f1a8",
    "name":"Kel. Pasar II Natal, Kec. Natal, Kab. Mandailing Natal",
    "address":"Kel. Pasar II Natal, Kec. Natal, Kab. Mandailing Natal",
    "lat":0.554638,
    "lon":99.110063,
    "radius":2000.0,
    "poi_type":"other",
    "description":"Kelurahan rawan narkoba, tempat penjualan, dan penangkapan yang tinggi",
    "created_at":"2025-11-13 09:59:19.603188",
    "is_active":true
  },
  "95ef134d-ee7f-4faa-8a02-2e985ce71db5":{
    "id":"95ef134d-ee7f-4faa-8a02-2e985ce71db5",
    "name":"Desa Setia Karya, Kec. Natal, Kab. Mandailing Natal",
    "address":"Desa Setia Karya, Kec. Natal, Kab. Mandailing Natal",
    "lat":0.5554575,
    "lon":99.1176033,
    "radius":2000.0,
    "poi_type":"other",
    "description":"Kelurahan rawan narkoba, tempat penjualan, dan penangkapan yang tinggi",
    "created_at":"2025-11-13 09:59:19.603206",
    "is_active":true
  },
  "01689bda-7f25-492c-847e-773ef6f496ff":{
    "id":"01689bda-7f25-492c-847e-773ef6f496ff",
    "name":"Desa Lumban Dolok, Kec. Siabu, Kab. Mandailing Natal",
    "address":"Desa Lumban Dolok, Kec. Siabu, Kab. Mandailing Natal",
    "lat":0.7663586,
    "lon":99.5172926,
    "radius":2000.0,
    "poi_type":"other",
    "description":"Kelurahan rawan narkoba, tempat penjualan, dan penangkapan yang tinggi",
    "created_at":"2025-11-13 09:59:19.603235",
    "is_active":true
  },
  "4a80d292-5d91-4ca9-8c6a-555792cccfde":{
    "id":"4a80d292-5d91-4ca9-8c6a-555792cccfde",
    "name":"Desa Sinonoan, Kec. Siabu, Kab. Mandailing Natal",
    "address":"Desa Sinonoan, Kec. Siabu, Kab. Mandailing Natal",
    "lat":0.9928408,
    "lon":99.5123578,
    "radius":2000.0,
    "poi_type":"other",
    "description":"Kelurahan rawan narkoba, tempat penjualan, dan penangkapan yang tinggi",
    "created_at":"2025-11-13 09:59:19.603255",
    "is_active":true
  },
  "13633c79-925b-4b21-9de7-afbd84822e78":{
    "id":"13633c79-925b-4b21-9de7-afbd84822e78",
    "name":"Desa Kampung Baru, Kec. Lingga Bayu, Kab. Mandailing Natal",
    "address":"Desa Kampung Baru, Kec. Lingga Bayu, Kab. Mandailing Natal",
    "lat":0.6403819,
    "lon":99.2674713,
    "radius":2000.0,
    "poi_type":"other",
    "description":"Kelurahan rawan narkoba, tempat penjualan, dan penangkapan yang tinggi",
    "created_at":"2025-11-13 09:59:19.603272",
    "is_active":true
  },
  "278d927e-0189-4438-81f5-e0ed949c29dc":{
    "id":"278d927e-0189-4438-81f5-e0ed949c29dc",
    "name":"Kel. Simpang Gambir, Kec. Lingga Bayu, Kab. Mandailing Natal",
    "address":"Kel. Simpang Gambir, Kec. Lingga Bayu, Kab. Mandailing Natal",
    "lat":0.6262786,
    "lon":99.3062823,
    "radius":2000.0,
    "poi_type":"other",
    "description":"Kelurahan rawan narkoba, tempat penjualan, dan penangkapan yang tinggi",
    "created_at":"2025-11-13 09:59:19.603290",
    "is_active":true
  },
  "e1510d1c-89b2-44ac-bec0-48d3562cedcc":{
    "id":"e1510d1c-89b2-44ac-bec0-48d3562cedcc",
    "name":"Desa Nagur, Kec. Tanjung Beringin, Kab. Serdang Bedagai",
    "address":"Desa Nagur, Kec. Tanjung Beringin, Kab. Serdang Bedagai",
    "lat":3.5029194,
    "lon":99.1926741,
    "radius":2000.0,
    "poi_type":"other",
    "description":"Kelurahan rawan narkoba, tempat penjualan, dan penangkapan yang tinggi",
    "created_at":"2025-11-13 09:59:19.603307",
    "is_active":true
  },
  "25bdbe65-1199-4de2-842a-b7af27758f19":{
    "id":"25bdbe65-1199-4de2-842a-b7af27758f19",
    "name":"Desa Sialang Buah, Kec. Teluk Mengkudu, Kab. Serdang Bedagai",
    "address":"Desa Sialang Buah, Kec. Teluk Mengkudu, Kab. Serdang Bedagai",
    "lat":3.5573665,
    "lon":99.1193297,
    "radius":2000.0,
    "poi_type":"other",
    "description":"Kelurahan rawan narkoba, tempat penjualan, dan penangkapan yang tinggi",
    "created_at":"2025-11-13 09:59:19.603324",
    "is_active":true
  },
  "cab75676-e11a-4fde-b5b1-64a9f25b5f30":{
    "id":"cab75676-e11a-4fde-b5b1-64a9f25b5f30",
    "name":"Kel. Olo, Kec. Padang Barat, Kota Padang",
    "address":"Kel. Olo, Kec. Padang Barat, Kota Padang",
    "lat":-0.9484495,
    "lon":100.354,
    "radius":2000.0,
    "poi_type":"other",
    "description":"Kelurahan rawan narkoba, tempat penjualan, dan penangkapan yang tinggi",
    "created_at":"2025-11-13 09:59:19.603342",
    "is_active":true
  },
  "e7076ee4-6caf-463b-8ddb-1604c31b4477":{
    "id":"e7076ee4-6caf-463b-8ddb-1604c31b4477",
    "name":"Nagari Ujung Gading, Kec. Lembah Melintang, Pasaman Barat",
    "address":"Nagari Ujung Gading, Kec. Lembah Melintang, Pasaman Barat",
    "lat":0.3603261,
    "lon":99.5784754,
    "radius":2000.0,
    "poi_type":"other",
    "description":"Kelurahan rawan narkoba, tempat penjualan, dan penangkapan yang tinggi",
    "created_at":"2025-11-13 09:59:19.603360",
    "is_active":true
  },
  "ff6782fc-e73c-4a7d-b7b2-0dfc3d417ec8":{
    "id":"ff6782fc-e73c-4a7d-b7b2-0dfc3d417ec8",
    "name":"Nagari Kinali, Kec. Kinali, Kab. Pasaman Barat",
    "address":"Nagari Kinali, Kec. Kinali, Kab. Pasaman Barat",
    "lat":-0.0367592,
    "lon":99.9465077,
    "radius":2000.0,
    "poi_type":"other",
    "description":"Kelurahan rawan narkoba, tempat penjualan, dan penangkapan yang tinggi",
    "created_at":"2025-11-13 09:59:19.603378",
    "is_active":true
  },
  "45d29612-ef1d-4c01-916b-e098334f545b":{
    "id":"45d29612-ef1d-4c01-916b-e098334f545b",
    "name":"Kel. Nunang Dayabangun, Kec. Payakumbuh Barat",
    "address":"Kel. Nunang Dayabangun, Kec. Payakumbuh Barat",
    "lat":-0.2281031,
    "lon":100.6330286,
    "radius":2000.0,
    "poi_type":"other",
    "description":"Kelurahan rawan narkoba, tempat penjualan, dan penangkapan yang tinggi",
    "created_at":"2025-11-13 09:59:19.603395",
    "is_active":true
  },
  "43e7033f-7950-4262-adca-31bc598fbf1a":{
    "id":"43e7033f-7950-4262-adca-31bc598fbf1a",
    "name":"Kel. Parikrantang, Payakumbuh Barat",
    "address":"Kel. Parikrantang, Payakumbuh Barat",
    "lat":-0.2263789,
    "lon":100.6266936,
    "radius":2000.0,
    "poi_type":"other",
    "description":"Kelurahan rawan narkoba, tempat penjualan, dan penangkapan yang tinggi",
    "created_at":"2025-11-13 09:59:19.603413",
    "is_active":true
  },
  "446d6180-e408-4eb5-b94f-60c8fe5ed8ad":{
    "id":"446d6180-e408-4eb5-b94f-60c8fe5ed8ad",
    "name":"Kampung Dalam, Kec. Senapelan, Kota Pekanbaru",
    "address":"Kampung Dalam, Kec. Senapelan, Kota Pekanbaru",
    "lat":0.5379171,
    "lon":101.4445619,
    "radius":2000.0,
    "poi_type":"other",
    "description":"Kelurahan rawan narkoba, tempat penjualan, dan penangkapan yang tinggi",
    "created_at":"2025-11-13 09:59:19.603431",
    "is_active":true
  },
  "c3d5063b-b7a1-49c7-98f5-f4d17ed905fb":{
    "id":"c3d5063b-b7a1-49c7-98f5-f4d17ed905fb",
    "name":"Kel. Tanah Datar (Pangeran Hidayat), Kota Pekanbaru",
    "address":"Kel. Tanah Datar (Pangeran Hidayat), Kota Pekanbaru",
    "lat":0.5216985,
    "lon":101.4445619,
    "radius":2000.0,
    "poi_type":"other",
    "description":"Kelurahan rawan narkoba, tempat penjualan, dan penangkapan yang tinggi",
    "created_at":"2025-11-13 09:59:19.603448",
    "is_active":true
  },
  "c1f7a28e-72c3-422c-bcd0-4d4f3b4be74c":{
    "id":"c1f7a28e-72c3-422c-bcd0-4d4f3b4be74c",
    "name":"Kel. Pulau Karomah (Kampung Tarandam), Kota Pekanbaru",
    "address":"Kel. Pulau Karomah (Kampung Tarandam), Kota Pekanbaru",
    "lat":0.5278893,
    "lon":101.4380226,
    "radius":2000.0,
    "poi_type":"other",
    "description":"Kelurahan rawan narkoba, tempat penjualan, dan penangkapan yang tinggi",
    "created_at":"2025-11-13 09:59:19.603466",
    "is_active":true
  },
  "0eb97412-cdb6-433f-a90b-f571dd1cb578":{
    "id":"0eb97412-cdb6-433f-a90b-f571dd1cb578",
    "name":"Kel. Muka Kuning, Kec. Sei Beduk, Batam",
    "address":"Kel. Muka Kuning, Kec. Sei Beduk, Batam",
    "lat":1.0671848,
    "lon":104.0187167,
    "radius":2000.0,
    "poi_type":"other",
    "description":"Kelurahan rawan narkoba, tempat penjualan, dan penangkapan yang tinggi",
    "created_at":"2025-11-13 09:59:19.603483",
    "is_active":true
  },
  "4453beef-3d9f-4374-abd4-f3cb7f07cf34":{
    "id":"4453beef-3d9f-4374-abd4-f3cb7f07cf34",
    "name":"Kel. Tanjung Uma, Kecamatan Lubuk Baja, Batam",
    "address":"Kel. Tanjung Uma, Kecamatan Lubuk Baja, Batam",
    "lat":1.1463762,
    "lon":103.9954115,
    "radius":2000.0,
    "poi_type":"other",
    "description":"Kelurahan rawan narkoba, tempat penjualan, dan penangkapan yang tinggi",
    "created_at":"2025-11-13 09:59:19.603501",
    "is_active":true
  },
  "7c4a9cea-bc9d-4970-bb0e-d025a2c912f6":{
    "id":"7c4a9cea-bc9d-4970-bb0e-d025a2c912f6",
    "name":"Kel. Tanjung Sari dan Kel: Sakanak Raya, Kecamatan Belakang Padang, Batam",
    "address":"Kel. Tanjung Sari dan Kel: Sakanak Raya, Kecamatan Belakang Padang, Batam",
    "lat":1.1531104,
    "lon":103.8932637,
    "radius":2000.0,
    "poi_type":"other",
    "description":"Kelurahan rawan narkoba, tempat penjualan, dan penangkapan yang tinggi",
    "created_at":"2025-11-13 09:59:19.603518",
    "is_active":true
  },
  "f18a97df-54dc-43a2-ad27-fc28b25a3877":{
    "id":"f18a97df-54dc-43a2-ad27-fc28b25a3877",
    "name":"Kel. Kampung Panglong/Kampung Melayu, Kec: Nongsa, Batam",
    "address":"Kel. Kampung Panglong/Kampung Melayu, Kec: Nongsa, Batam",
    "lat":1.1938615,
    "lon":104.0852811,
    "radius":2000.0,
    "poi_type":"other",
    "description":"Kelurahan rawan narkoba, tempat penjualan, dan penangkapan yang tinggi",
    "created_at":"2025-11-13 09:59:19.603535",
    "is_active":true
  },
  "36a37d54-f6e9-48f2-a752-22ede5436d62":{
    "id":"36a37d54-f6e9-48f2-a752-22ede5436d62",
    "name":"Kel. Tanjung Riau, Kec: Sekupang, Batam",
    "address":"Kel. Tanjung Riau, Kec: Sekupang, Batam",
    "lat":1.0986572,
    "lon":103.9327815,
    "radius":2000.0,
    "poi_type":"other",
    "description":"Kelurahan rawan narkoba, tempat penjualan, dan penangkapan yang tinggi",
    "created_at":"2025-11-13 09:59:19.603553",
    "is_active":true
  },
  "5747ae41-e0d3-48fc-b233-5d3e4d3da863":{
    "id":"5747ae41-e0d3-48fc-b233-5d3e4d3da863",
    "name":"Kel. Kampung Bugis, Kec: Tanjung Pinang Kota, Kota Tanjung Pinang",
    "address":"Kel. Kampung Bugis, Kec: Tanjung Pinang Kota, Kota Tanjung Pinang",
    "lat":0.9555636,
    "lon":104.4665072,
    "radius":2000.0,
    "poi_type":"other",
    "description":"Kelurahan rawan narkoba, tempat penjualan, dan penangkapan yang tinggi",
    "created_at":"2025-11-13 09:59:19.603575",
    "is_active":true
  },
  "80edc251-0503-4670-a70d-b2af468f60b8":{
    "id":"80edc251-0503-4670-a70d-b2af468f60b8",
    "name":"Kel. Tanjung Unggat, Kec: Bukit Bestari, Kota Tanjung Pinang",
    "address":"Kel. Tanjung Unggat, Kec: Bukit Bestari, Kota Tanjung Pinang",
    "lat":0.9224685,
    "lon":104.4662151,
    "radius":2000.0,
    "poi_type":"other",
    "description":"Kelurahan rawan narkoba, tempat penjualan, dan penangkapan yang tinggi",
    "created_at":"2025-11-13 09:59:19.603593",
    "is_active":true
  },
  "5564d001-e369-4e8a-92c2-1f57fd29c215":{
    "id":"5564d001-e369-4e8a-92c2-1f57fd29c215",
    "name":"Kel. Telukuma, Kec: Tebing, Karimun",
    "address":"Kel. Telukuma, Kec: Tebing, Karimun",
    "lat":1.0414386,
    "lon":103.4020555,
    "radius":2000.0,
    "poi_type":"other",
    "description":"Kelurahan rawan narkoba, tempat penjualan, dan penangkapan yang tinggi",
    "created_at":"2025-11-13 09:59:19.603618",
    "is_active":true
  },
  "5b18a1cf-ab3c-4da2-b024-74cfef34857c":{
    "id":"5b18a1cf-ab3c-4da2-b024-74cfef34857c",
    "name":"Kel. Sungai Pasir, Kec: Meral, Karimun",
    "address":"Kel. Sungai Pasir, Kec: Meral, Karimun",
    "lat":1.0026468,
    "lon":103.3885276,
    "radius":2000.0,
    "poi_type":"other",
    "description":"Kelurahan rawan narkoba, tempat penjualan, dan penangkapan yang tinggi",
    "created_at":"2025-11-13 09:59:19.603637",
    "is_active":true
  },
  "4299236d-13ba-4d73-a8af-35a81058f091":{
    "id":"4299236d-13ba-4d73-a8af-35a81058f091",
    "name":"Desa Niyur, Kec: Moro, Karimun",
    "address":"Desa Niyur, Kec: Moro, Karimun",
    "lat":0.8789341,
    "lon":103.7630659,
    "radius":2000.0,
    "poi_type":"other",
    "description":"Kelurahan rawan narkoba, tempat penjualan, dan penangkapan yang tinggi",
    "created_at":"2025-11-13 09:59:19.603654",
    "is_active":true
  },
  "fe9c7386-42a7-4129-8d5f-d7e9574a7aa6":{
    "id":"fe9c7386-42a7-4129-8d5f-d7e9574a7aa6",
    "name":"Desa Alay, Kec: Kundur, Karimun",
    "address":"Desa Alay, Kec: Kundur, Karimun",
    "lat":0.6724247,
    "lon":103.5032081,
    "radius":2000.0,
    "poi_type":"other",
    "description":"Kelurahan rawan narkoba, tempat penjualan, dan penangkapan yang tinggi",
    "created_at":"2025-11-13 09:59:19.603672",
    "is_active":true
  },
  "63966002-de8a-4b82-b515-4a1c90070ca3":{
    "id":"63966002-de8a-4b82-b515-4a1c90070ca3",
    "name":"Kel. Tungkal Dua, Kec. Tungkal Ilir, Kab. Tanjung Jabung Barat",
    "address":"Kel. Tungkal Dua, Kec. Tungkal Ilir, Kab. Tanjung Jabung Barat",
    "lat":-0.8389424,
    "lon":103.4916438,
    "radius":2000.0,
    "poi_type":"other",
    "description":"Kelurahan rawan narkoba, tempat penjualan, dan penangkapan yang tinggi",
    "created_at":"2025-11-13 09:59:19.603689",
    "is_active":true
  },
  "d3ec4679-5704-4118-9652-fc38c3b81a9d":{
    "id":"d3ec4679-5704-4118-9652-fc38c3b81a9d",
    "name":"Pulau Pandan Kel. Legok, Kec. Danau Sipin, Kota Jambi",
    "address":"Pulau Pandan Kel. Legok, Kec. Danau Sipin, Kota Jambi",
    "lat":-1.5937405,
    "lon":103.5928664,
    "radius":2000.0,
    "poi_type":"other",
    "description":"Kelurahan rawan narkoba, tempat penjualan, dan penangkapan yang tinggi",
    "created_at":"2025-11-13 09:59:19.603707",
    "is_active":true
  },
  "b15e143a-ff12-4cd4-91f9-ec1d31f34dcd":{
    "id":"b15e143a-ff12-4cd4-91f9-ec1d31f34dcd",
    "name":"Desa Pulau Kayu Aro, Kec. Sekernan, Kab. Muaro Jambi",
    "address":"Desa Pulau Kayu Aro, Kec. Sekernan, Kab. Muaro Jambi",
    "lat":-1.5141819,
    "lon":103.5003169,
    "radius":2000.0,
    "poi_type":"other",
    "description":"Kelurahan rawan narkoba, tempat penjualan, dan penangkapan yang tinggi",
    "created_at":"2025-11-13 09:59:19.603724",
    "is_active":true
  },
  "e7eb86c1-ece1-40f0-85cd-f075bcfe5684":{
    "id":"e7eb86c1-ece1-40f0-85cd-f075bcfe5684",
    "name":"Desa Pelawan, Kec. Singkut, Kab. Sarolangun",
    "address":"Desa Pelawan, Kec. Singkut, Kab. Sarolangun",
    "lat":-2.380277,
    "lon":102.697304,
    "radius":2000.0,
    "poi_type":"other",
    "description":"Kelurahan rawan narkoba, tempat penjualan, dan penangkapan yang tinggi",
    "created_at":"2025-11-13 09:59:19.603746",
    "is_active":true
  },
  "975fc3cd-b392-41e4-9ee9-ac062dc30912":{
    "id":"975fc3cd-b392-41e4-9ee9-ac062dc30912",
    "name":"Desa Bathin II, Kec. Pelayangan, Kab. Bungo",
    "address":"Desa Bathin II, Kec. Pelayangan, Kab. Bungo",
    "lat":-1.4899542,
    "lon":102.1973313,
    "radius":2000.0,
    "poi_type":"other",
    "description":"Kelurahan rawan narkoba, tempat penjualan, dan penangkapan yang tinggi",
    "created_at":"2025-11-13 09:59:19.603764",
    "is_active":true
  },
  "6d4453ba-491f-4159-83ec-5eb4f72372f6":{
    "id":"6d4453ba-491f-4159-83ec-5eb4f72372f6",
    "name":"Kel. Wirotho Agung, Kec. Rimbo Bujang, Kab. Tebo",
    "address":"Kel. Wirotho Agung, Kec. Rimbo Bujang, Kab. Tebo",
    "lat":-1.3075528,
    "lon":102.1061105,
    "radius":2000.0,
    "poi_type":"other",
    "description":"Kelurahan rawan narkoba, tempat penjualan, dan penangkapan yang tinggi",
    "created_at":"2025-11-13 09:59:19.603782",
    "is_active":true
  },
  "a593a1ee-06b0-4eaa-9644-0ce83aea71b1":{
    "id":"a593a1ee-06b0-4eaa-9644-0ce83aea71b1",
    "name":"Desa Unit 8, Kec. Rimbo Ulu, Kab. Tebo",
    "address":"Desa Unit 8, Kec. Rimbo Ulu, Kab. Tebo",
    "lat":-1.2638719,
    "lon":102.0613537,
    "radius":2000.0,
    "poi_type":"other",
    "description":"Kelurahan rawan narkoba, tempat penjualan, dan penangkapan yang tinggi",
    "created_at":"2025-11-13 09:59:19.603800",
    "is_active":true
  },
  "f1192033-4911-42d6-ad1a-22df4aa96c2b":{
    "id":"f1192033-4911-42d6-ad1a-22df4aa96c2b",
    "name":"Desa Demang, Kec. Limun, Kab. Sarolangun",
    "address":"Desa Demang, Kec. Limun, Kab. Sarolangun",
    "lat":-2.5320272,
    "lon":102.5699643,
    "radius":2000.0,
    "poi_type":"other",
    "description":"Kelurahan rawan narkoba, tempat penjualan, dan penangkapan yang tinggi",
    "created_at":"2025-11-13 09:59:19.603817",
    "is_active":true
  },
  "0fe44b17-0a65-4166-b2e8-9f7708a1e147":{
    "id":"0fe44b17-0a65-4166-b2e8-9f7708a1e147",
    "name":"Desa Arang-arang, Kec. Kumpeh Ulu, Kab. Muaro Jambi",
    "address":"Desa Arang-arang, Kec. Kumpeh Ulu, Kab. Muaro Jambi",
    "lat":-1.6559663,
    "lon":103.8100339,
    "radius":2000.0,
    "poi_type":"other",
    "description":"Kelurahan rawan narkoba, tempat penjualan, dan penangkapan yang tinggi",
    "created_at":"2025-11-13 09:59:19.603835",
    "is_active":true
  },
  "638e368a-29ec-4bdc-9599-1aacf4200405":{
    "id":"638e368a-29ec-4bdc-9599-1aacf4200405",
    "name":"Desa Unit II, Kec. Sei Bahar, Kab. Muaro Jambi",
    "address":"Desa Unit II, Kec. Sei Bahar, Kab. Muaro Jambi",
    "lat":-1.993108,
    "lon":103.4422482,
    "radius":2000.0,
    "poi_type":"other",
    "description":"Kelurahan rawan narkoba, tempat penjualan, dan penangkapan yang tinggi",
    "created_at":"2025-11-13 09:59:19.603860",
    "is_active":true
  },
  "1b8099ee-b8d0-4bc0-a580-9a676230bac5":{
    "id":"1b8099ee-b8d0-4bc0-a580-9a676230bac5",
    "name":"Dusun Babeko, Kec. Bathin II, Kab. Bungo",
    "address":"Dusun Babeko, Kec. Bathin II, Kab. Bungo",
    "lat":-1.5149478,
    "lon":102.197583,
    "radius":2000.0,
    "poi_type":"other",
    "description":"Kelurahan rawan narkoba, tempat penjualan, dan penangkapan yang tinggi",
    "created_at":"2025-11-13 09:59:19.603879",
    "is_active":true
  },
  "60c963ba-2308-4541-a089-3a595096cbba":{
    "id":"60c963ba-2308-4541-a089-3a595096cbba",
    "name":"Kel. Pasar Muara Bungo, Kec. Muara Bungo, Kab. Bungo",
    "address":"Kel. Pasar Muara Bungo, Kec. Muara Bungo, Kab. Bungo",
    "lat":-1.4837477,
    "lon":102.1173199,
    "radius":2000.0,
    "poi_type":"other",
    "description":"Kelurahan rawan narkoba, tempat penjualan, dan penangkapan yang tinggi",
    "created_at":"2025-11-13 09:59:19.603897",
    "is_active":true
  },
  "5d00e1a0-3444-4f89-884e-7ccb328da78f":{
    "id":"5d00e1a0-3444-4f89-884e-7ccb328da78f",
    "name":"Desa Pelayangan Tanah Tumbuh, Kec. Jujuhan, Kab. Bungo",
    "address":"Desa Pelayangan Tanah Tumbuh, Kec. Jujuhan, Kab. Bungo",
    "lat":-1.4386402,
    "lon":101.869213,
    "radius":2000.0,
    "poi_type":"other",
    "description":"Kelurahan rawan narkoba, tempat penjualan, dan penangkapan yang tinggi",
    "created_at":"2025-11-13 09:59:19.603914",
    "is_active":true
  },
  "63ec1a57-7d5c-4060-b888-0a10ed8dc2e8":{
    "id":"63ec1a57-7d5c-4060-b888-0a10ed8dc2e8",
    "name":"Desa Aur Cino, Kec, Bathin III Ulu, Kab. Bungo",
    "address":"Desa Aur Cino, Kec, Bathin III Ulu, Kab. Bungo",
    "lat":-1.7443566,
    "lon":101.9690458,
    "radius":2000.0,
    "poi_type":"other",
    "description":"Kelurahan rawan narkoba, tempat penjualan, dan penangkapan yang tinggi",
    "created_at":"2025-11-13 09:59:19.603932",
    "is_active":true
  },
  "68280165-1c8b-4b5a-bc3b-ecb82d884b15":{
    "id":"68280165-1c8b-4b5a-bc3b-ecb82d884b15",
    "name":"Dusun Baru, Kec. Pelepat, Kab. Bungo",
    "address":"Dusun Baru, Kec. Pelepat, Kab. Bungo",
    "lat":-1.8484561,
    "lon":102.0946818,
    "radius":2000.0,
    "poi_type":"other",
    "description":"Kelurahan rawan narkoba, tempat penjualan, dan penangkapan yang tinggi",
    "created_at":"2025-11-13 09:59:19.603954",
    "is_active":true
  },
  "9c218524-d497-47b5-a2e6-3d98916f34ef":{
    "id":"9c218524-d497-47b5-a2e6-3d98916f34ef",
    "name":"Desa Kayu Aro, Kec. Kayu Aro, Kab. Kerinci",
    "address":"Desa Kayu Aro, Kec. Kayu Aro, Kab. Kerinci",
    "lat":-1.7759175,
    "lon":101.2830858,
    "radius":2000.0,
    "poi_type":"other",
    "description":"Kelurahan rawan narkoba, tempat penjualan, dan penangkapan yang tinggi",
    "created_at":"2025-11-13 09:59:19.603972",
    "is_active":true
  },
  "89b2b6ca-cb8a-46e3-9a4a-09a7801f31c4":{
    "id":"89b2b6ca-cb8a-46e3-9a4a-09a7801f31c4",
    "name":"Desa Muara Ketalo, Kec. Bathin VIII, Kab. Sarolangun",
    "address":"Desa Muara Ketalo, Kec. Bathin VIII, Kab. Sarolangun",
    "lat":-1.9613031,
    "lon":102.97234,
    "radius":2000.0,
    "poi_type":"other",
    "description":"Kelurahan rawan narkoba, tempat penjualan, dan penangkapan yang tinggi",
    "created_at":"2025-11-13 09:59:19.603989",
    "is_active":true
  },
  "16f306f9-5dd1-4062-930e-391d8dac78f8":{
    "id":"16f306f9-5dd1-4062-930e-391d8dac78f8",
    "name":"Desa Mandiangin Dalam, Kec. Mandiangin, Kab. Sarolangun",
    "address":"Desa Mandiangin Dalam, Kec. Mandiangin, Kab. Sarolangun",
    "lat":-2.0369447,
    "lon":102.9655211,
    "radius":2000.0,
    "poi_type":"other",
    "description":"Kelurahan rawan narkoba, tempat penjualan, dan penangkapan yang tinggi",
    "created_at":"2025-11-13 09:59:19.604007",
    "is_active":true
  },
  "ba294df7-e2e1-49c1-b46c-3535f3dfe666":{
    "id":"ba294df7-e2e1-49c1-b46c-3535f3dfe666",
    "name":"Desa Giri Winangun Unit 15, Kec. Rimbo Ilir, Kab. Tebo",
    "address":"Desa Giri Winangun Unit 15, Kec. Rimbo Ilir, Kab. Tebo",
    "lat":-1.3619418,
    "lon":102.2532488,
    "radius":2000.0,
    "poi_type":"other",
    "description":"Kelurahan rawan narkoba, tempat penjualan, dan penangkapan yang tinggi",
    "created_at":"2025-11-13 09:59:19.604024",
    "is_active":true
  },
  "34ca62cb-2c35-4201-9cf8-2b27fa7399b7":{
    "id":"34ca62cb-2c35-4201-9cf8-2b27fa7399b7",
    "name":"Desa Air Itam, Kec. Pauh, Kab. Sarolangun",
    "address":"Desa Air Itam, Kec. Pauh, Kab. Sarolangun",
    "lat":-2.0443224,
    "lon":102.7479899,
    "radius":2000.0,
    "poi_type":"other",
    "description":"Kelurahan rawan narkoba, tempat penjualan, dan penangkapan yang tinggi",
    "created_at":"2025-11-13 09:59:19.604042",
    "is_active":true
  },
  "6e428ee6-8c8b-445c-959b-fe54d72b4060":{
    "id":"6e428ee6-8c8b-445c-959b-fe54d72b4060",
    "name":"Desa Rambahan, Kec. Sumai, Kab. Tebo",
    "address":"Desa Rambahan, Kec. Sumai, Kab. Tebo",
    "lat":-1.3034344,
    "lon":102.3088738,
    "radius":2000.0,
    "poi_type":"other",
    "description":"Kelurahan rawan narkoba, tempat penjualan, dan penangkapan yang tinggi",
    "created_at":"2025-11-13 09:59:19.604063",
    "is_active":true
  },
  "0a8a1db7-c0d3-4ddc-bc54-aba38a59d52a":{
    "id":"0a8a1db7-c0d3-4ddc-bc54-aba38a59d52a",
    "name":"Desa Danau Kedap jambi Kecil, Kec. Jambi Luar Kota, Kab. Muaro Jambi",
    "address":"Desa Danau Kedap jambi Kecil, Kec. Jambi Luar Kota, Kab. Muaro Jambi",
    "lat":-1.5513282,
    "lon":103.5870802,
    "radius":2000.0,
    "poi_type":"other",
    "description":"Kelurahan rawan narkoba, tempat penjualan, dan penangkapan yang tinggi",
    "created_at":"2025-11-13 09:59:19.604082",
    "is_active":true
  },
  "6d1692f5-0a89-4b63-a00e-544d850bdb92":{
    "id":"6d1692f5-0a89-4b63-a00e-544d850bdb92",
    "name":"Desa Sanggaran Agung, Kec. Danau Kerinci, Kab. Kerinci",
    "address":"Desa Sanggaran Agung, Kec. Danau Kerinci, Kab. Kerinci",
    "lat":-2.1186834,
    "lon":101.521964,
    "radius":2000.0,
    "poi_type":"other",
    "description":"Kelurahan rawan narkoba, tempat penjualan, dan penangkapan yang tinggi",
    "created_at":"2025-11-13 09:59:19.604100",
    "is_active":true
  },
  "b88c0893-de09-4380-afe4-ab006a86cd57":{
    "id":"b88c0893-de09-4380-afe4-ab006a86cd57",
    "name":"Desa Sei Ulak, Kec. Siulak, Kab. Kerinci",
    "address":"Desa Sei Ulak, Kec. Siulak, Kab. Kerinci",
    "lat":-1.9755561,
    "lon":101.3437643,
    "radius":2000.0,
    "poi_type":"other",
    "description":"Kelurahan rawan narkoba, tempat penjualan, dan penangkapan yang tinggi",
    "created_at":"2025-11-13 09:59:19.604118",
    "is_active":true
  },
  "934e7eb0-73a2-4515-b0ac-c8f3e2786d70":{
    "id":"934e7eb0-73a2-4515-b0ac-c8f3e2786d70",
    "name":"Kel. Pasar Sungai Penuh, Kec. Sungai Penuh, Kota Sungai Penuh",
    "address":"Kel. Pasar Sungai Penuh, Kec. Sungai Penuh, Kota Sungai Penuh",
    "lat":-2.06246,
    "lon":101.3977233,
    "radius":2000.0,
    "poi_type":"other",
    "description":"Kelurahan rawan narkoba, tempat penjualan, dan penangkapan yang tinggi",
    "created_at":"2025-11-13 09:59:19.604136",
    "is_active":true
  },
  "6c7c4541-b743-40ce-8803-73775107d85b":{
    "id":"6c7c4541-b743-40ce-8803-73775107d85b",
    "name":"Kel. Olak Kemang, Kec. Pelayangan, Kota Jambi",
    "address":"Kel. Olak Kemang, Kec. Pelayangan, Kota Jambi",
    "lat":-1.5653974,
    "lon":103.5986529,
    "radius":2000.0,
    "poi_type":"other",
    "description":"Kelurahan rawan narkoba, tempat penjualan, dan penangkapan yang tinggi",
    "created_at":"2025-11-13 09:59:19.604154",
    "is_active":true
  },
  "c1b33ee9-0151-4b62-9df8-7600840dbc1b":{
    "id":"c1b33ee9-0151-4b62-9df8-7600840dbc1b",
    "name":"Kel. Sukarami, Kec. Sukarami Kota Palembang",
    "address":"Kel. Sukarami, Kec. Sukarami Kota Palembang",
    "lat":-2.9230025,
    "lon":104.7193636,
    "radius":2000.0,
    "poi_type":"other",
    "description":"Kelurahan rawan narkoba, tempat penjualan, dan penangkapan yang tinggi",
    "created_at":"2025-11-13 09:59:19.604172",
    "is_active":true
  },
  "cb484db8-2261-4a1a-8096-d1d70e417bb9":{
    "id":"cb484db8-2261-4a1a-8096-d1d70e417bb9",
    "name":"Desa Ulak Jermun Kecamatan Sp. Padang, Ogan Komering Ilir",
    "address":"Desa Ulak Jermun Kecamatan Sp. Padang, Ogan Komering Ilir",
    "lat":-3.3193173,
    "lon":104.9096846,
    "radius":2000.0,
    "poi_type":"other",
    "description":"Kelurahan rawan narkoba, tempat penjualan, dan penangkapan yang tinggi",
    "created_at":"2025-11-13 09:59:19.604190",
    "is_active":true
  },
  "1f502f60-0084-4e2c-9f26-36e45043f99a":{
    "id":"1f502f60-0084-4e2c-9f26-36e45043f99a",
    "name":"Kelurahan Cereme Taba, Kecamatan Libuk Linggau Timur II, Kab. Lubuk Linggau",
    "address":"Kelurahan Cereme Taba, Kecamatan Libuk Linggau Timur II, Kab. Lubuk Linggau",
    "lat":-3.2931205,
    "lon":102.8816863,
    "radius":2000.0,
    "poi_type":"other",
    "description":"Kelurahan rawan narkoba, tempat penjualan, dan penangkapan yang tinggi",
    "created_at":"2025-11-13 09:59:19.604207",
    "is_active":true
  },
  "66e88dd0-be0b-4ae0-8a30-827245544dc3":{
    "id":"66e88dd0-be0b-4ae0-8a30-827245544dc3",
    "name":"Desa Ibul Besar II Kecamatan Pemulutan, Kab. Ogan Ilir",
    "address":"Desa Ibul Besar II Kecamatan Pemulutan, Kab. Ogan Ilir",
    "lat":-3.0418189,
    "lon":104.7550108,
    "radius":2000.0,
    "poi_type":"other",
    "description":"Kelurahan rawan narkoba, tempat penjualan, dan penangkapan yang tinggi",
    "created_at":"2025-11-13 09:59:19.604224",
    "is_active":true
  },
  "9d4f6e62-8aea-430b-9e65-c1755ca394f7":{
    "id":"9d4f6e62-8aea-430b-9e65-c1755ca394f7",
    "name":"Kelurahan Jaya Loka, Kecamatan Tebing Tinggi, Kab. Empat Lawang",
    "address":"Kelurahan Jaya Loka, Kecamatan Tebing Tinggi, Kab. Empat Lawang",
    "lat":-3.233333,
    "lon":103.2,
    "radius":2000.0,
    "poi_type":"other",
    "description":"Kelurahan rawan narkoba, tempat penjualan, dan penangkapan yang tinggi",
    "created_at":"2025-11-13 09:59:19.604245",
    "is_active":true
  },
  "d64436d6-c59a-49da-bd91-fd2d4037644d":{
    "id":"d64436d6-c59a-49da-bd91-fd2d4037644d",
    "name":"Desa Tanjung Telang, Prabumulih Barat, Kota Prabumulih",
    "address":"Desa Tanjung Telang, Prabumulih Barat, Kota Prabumulih",
    "lat":-3.3695131,
    "lon":104.1756573,
    "radius":2000.0,
    "poi_type":"other",
    "description":"Kelurahan rawan narkoba, tempat penjualan, dan penangkapan yang tinggi",
    "created_at":"2025-11-13 09:59:19.604263",
    "is_active":true
  },
  "0de78cd6-6943-4f0a-a933-1d8f79b2c408":{
    "id":"0de78cd6-6943-4f0a-a933-1d8f79b2c408",
    "name":"Kelurahan Tebat Giri Indah, Kecamatan Pagar Alam Selatan, Kab. Pagar Alam",
    "address":"Kelurahan Tebat Giri Indah, Kecamatan Pagar Alam Selatan, Kab. Pagar Alam",
    "lat":-4.0250806,
    "lon":103.2475913,
    "radius":2000.0,
    "poi_type":"other",
    "description":"Kelurahan rawan narkoba, tempat penjualan, dan penangkapan yang tinggi",
    "created_at":"2025-11-13 09:59:19.604288",
    "is_active":true
  },
  "b9d605ba-adb1-4472-8d1e-9ccb21881fb6":{
    "id":"b9d605ba-adb1-4472-8d1e-9ccb21881fb6",
    "name":"Ds. Ujan Mas, Kec. Ujan Mas, Kab. Muara Enim,",
    "address":"Ds. Ujan Mas, Kec. Ujan Mas, Kab. Muara Enim,",
    "lat":-3.5328195,
    "lon":103.7744866,
    "radius":2000.0,
    "poi_type":"other",
    "description":"Kelurahan rawan narkoba, tempat penjualan, dan penangkapan yang tinggi",
    "created_at":"2025-11-13 09:59:19.604311",
    "is_active":true
  },
  "3610f0e4-7292-49ae-8f87-a8496df31c29":{
    "id":"3610f0e4-7292-49ae-8f87-a8496df31c29",
    "name":"Desa Tanjung Kemala, Kecamatan Martapura, Oku Timur",
    "address":"Desa Tanjung Kemala, Kecamatan Martapura, Oku Timur",
    "lat":-4.3262162,
    "lon":104.3268266,
    "radius":2000.0,
    "poi_type":"other",
    "description":"Kelurahan rawan narkoba, tempat penjualan, dan penangkapan yang tinggi",
    "created_at":"2025-11-13 09:59:19.604329",
    "is_active":true
  },
  "f8b15ad7-6684-4909-aad1-5a7faee1217f":{
    "id":"f8b15ad7-6684-4909-aad1-5a7faee1217f",
    "name":"Kel. Pasir Putih Kec. Bukit Intan Pangkal Pinang, Kota Pangkal Pinang",
    "address":"Kel. Pasir Putih Kec. Bukit Intan Pangkal Pinang, Kota Pangkal Pinang",
    "lat":-2.1259674,
    "lon":106.1239671,
    "radius":2000.0,
    "poi_type":"other",
    "description":"Kelurahan rawan narkoba, tempat penjualan, dan penangkapan yang tinggi",
    "created_at":"2025-11-13 09:59:19.604347",
    "is_active":true
  },
  "14e0a09c-916e-44b0-bbd8-ee99f9d8e9a7":{
    "id":"14e0a09c-916e-44b0-bbd8-ee99f9d8e9a7",
    "name":"Kp. Nelayan Kel. Sungailiat, Kab. Bangka",
    "address":"Kp. Nelayan Kel. Sungailiat, Kab. Bangka",
    "lat":-1.8412425,
    "lon":106.1196812,
    "radius":2000.0,
    "poi_type":"other",
    "description":"Kelurahan rawan narkoba, tempat penjualan, dan penangkapan yang tinggi",
    "created_at":"2025-11-13 09:59:19.604364",
    "is_active":true
  },
  "1a94f429-6b38-40f4-9156-65aec2f67552":{
    "id":"1a94f429-6b38-40f4-9156-65aec2f67552",
    "name":"Kp. Sukadamai, Kel. Ketapang Kec. Taboali, Kota Bangka Selatan",
    "address":"Kp. Sukadamai, Kel. Ketapang Kec. Taboali, Kota Bangka Selatan",
    "lat":-3.0234956,
    "lon":106.4677024,
    "radius":2000.0,
    "poi_type":"other",
    "description":"Kelurahan rawan narkoba, tempat penjualan, dan penangkapan yang tinggi",
    "created_at":"2025-11-13 09:59:19.604381",
    "is_active":true
  },
  "0ee90ac8-1a36-410b-a15a-e8be701bbc2b":{
    "id":"0ee90ac8-1a36-410b-a15a-e8be701bbc2b",
    "name":"Kel. Tanjung Kec. Muntok, Kota Bangka Barat.",
    "address":"Kel. Tanjung Kec. Muntok, Kota Bangka Barat.",
    "lat":-2.0232784,
    "lon":105.1375908,
    "radius":2000.0,
    "poi_type":"other",
    "description":"Kelurahan rawan narkoba, tempat penjualan, dan penangkapan yang tinggi",
    "created_at":"2025-11-13 09:59:19.604399",
    "is_active":true
  },
  "2a4e603b-25f7-4198-9ce8-0b473052a264":{
    "id":"2a4e603b-25f7-4198-9ce8-0b473052a264",
    "name":"Ds. Kurau Timur Kec. Koba, Kota Bangka Tengah",
    "address":"Ds. Kurau Timur Kec. Koba, Kota Bangka Tengah",
    "lat":-2.331699,
    "lon":106.2333314,
    "radius":2000.0,
    "poi_type":"other",
    "description":"Kelurahan rawan narkoba, tempat penjualan, dan penangkapan yang tinggi",
    "created_at":"2025-11-13 09:59:19.604416",
    "is_active":true
  },
  "a282b525-7438-4ed4-8616-96c8ce9cd028":{
    "id":"a282b525-7438-4ed4-8616-96c8ce9cd028",
    "name":"Kel. Kp. Damai Kec. Tanjung Pandan, Kota Tanjung Pandan Belitung.",
    "address":"Kel. Kp. Damai Kec. Tanjung Pandan, Kota Tanjung Pandan Belitung.",
    "lat":-2.732847,
    "lon":107.6369569,
    "radius":2000.0,
    "poi_type":"other",
    "description":"Kelurahan rawan narkoba, tempat penjualan, dan penangkapan yang tinggi",
    "created_at":"2025-11-13 09:59:19.604434",
    "is_active":true
  },
  "fbabe43c-a8a5-462c-9200-aa3a585c1344":{
    "id":"fbabe43c-a8a5-462c-9200-aa3a585c1344",
    "name":"Kel. Lempuing, Kecamatan Ratu Agung, Kota Bengkulu",
    "address":"Kel. Lempuing, Kecamatan Ratu Agung, Kota Bengkulu",
    "lat":-3.8233969,
    "lon":102.2791147,
    "radius":2000.0,
    "poi_type":"other",
    "description":"Kelurahan rawan narkoba, tempat penjualan, dan penangkapan yang tinggi",
    "created_at":"2025-11-13 09:59:19.604451",
    "is_active":true
  },
  "52d5b923-e55b-46b5-99b5-8f59b0dfdb78":{
    "id":"52d5b923-e55b-46b5-99b5-8f59b0dfdb78",
    "name":"Kel. Sidomulyo, Kecamatan Gading Cempaka, Kota Bengkulu",
    "address":"Kel. Sidomulyo, Kecamatan Gading Cempaka, Kota Bengkulu",
    "lat":-3.814083,
    "lon":102.3206187,
    "radius":2000.0,
    "poi_type":"other",
    "description":"Kelurahan rawan narkoba, tempat penjualan, dan penangkapan yang tinggi",
    "created_at":"2025-11-13 09:59:19.604468",
    "is_active":true
  },
  "0c6240fe-d52e-4be6-8716-98273b91cc83":{
    "id":"0c6240fe-d52e-4be6-8716-98273b91cc83",
    "name":"Kel. Kebun Kenanga, Kecamatan Ratu Samban, Kota Bengkulu",
    "address":"Kel. Kebun Kenanga, Kecamatan Ratu Samban, Kota Bengkulu",
    "lat":-3.8010478,
    "lon":102.268573,
    "radius":2000.0,
    "poi_type":"other",
    "description":"Kelurahan rawan narkoba, tempat penjualan, dan penangkapan yang tinggi",
    "created_at":"2025-11-13 09:59:19.604485",
    "is_active":true
  },
  "c285b5b9-8c95-4d92-83fe-e462ff335b45":{
    "id":"c285b5b9-8c95-4d92-83fe-e462ff335b45",
    "name":"Kel. Pagar Dewa, Kecamatan Selebar, Kota Bengkulu",
    "address":"Kel. Pagar Dewa, Kecamatan Selebar, Kota Bengkulu",
    "lat":-3.8482945,
    "lon":102.3146546,
    "radius":2000.0,
    "poi_type":"other",
    "description":"Kelurahan rawan narkoba, tempat penjualan, dan penangkapan yang tinggi",
    "created_at":"2025-11-13 09:59:19.604503",
    "is_active":true
  },
  "75d65c6d-cc7d-4485-995c-512efb9fc8c0":{
    "id":"75d65c6d-cc7d-4485-995c-512efb9fc8c0",
    "name":"Kel. Dusun Besar, Kecamatan Singaran Pati, Kota Bengkulu",
    "address":"Kel. Dusun Besar, Kecamatan Singaran Pati, Kota Bengkulu",
    "lat":-3.8064562,
    "lon":102.3042083,
    "radius":2000.0,
    "poi_type":"other",
    "description":"Kelurahan rawan narkoba, tempat penjualan, dan penangkapan yang tinggi",
    "created_at":"2025-11-13 09:59:19.604524",
    "is_active":true
  },
  "5f542818-9c7d-4e5a-8bb3-2cf991a3976b":{
    "id":"5f542818-9c7d-4e5a-8bb3-2cf991a3976b",
    "name":"Kel. Kebun Keling, Kecamatan Teluk Segara, Kota Bengkulu",
    "address":"Kel. Kebun Keling, Kecamatan Teluk Segara, Kota Bengkulu",
    "lat":-3.7858425,
    "lon":102.2512155,
    "radius":2000.0,
    "poi_type":"other",
    "description":"Kelurahan rawan narkoba, tempat penjualan, dan penangkapan yang tinggi",
    "created_at":"2025-11-13 09:59:19.604542",
    "is_active":true
  },
  "1a5c69ff-ce00-401f-ab3b-f434be21742b":{
    "id":"1a5c69ff-ce00-401f-ab3b-f434be21742b",
    "name":"Kel. Panjang Utara, Kecamatan Panjang, Bandar Lampung",
    "address":"Kel. Panjang Utara, Kecamatan Panjang, Bandar Lampung",
    "lat":-5.4729617,
    "lon":105.3233633,
    "radius":2000.0,
    "poi_type":"other",
    "description":"Kelurahan rawan narkoba, tempat penjualan, dan penangkapan yang tinggi",
    "created_at":"2025-11-13 09:59:19.604560",
    "is_active":true
  },
  "6c075516-3a53-403d-ade7-3dcde3e21374":{
    "id":"6c075516-3a53-403d-ade7-3dcde3e21374",
    "name":"Kel. Kaliawi, Kecamatan Tanjung Karang Pusat, Bandar Lampung",
    "address":"Kel. Kaliawi, Kecamatan Tanjung Karang Pusat, Bandar Lampung",
    "lat":-5.416379,
    "lon":105.2494789,
    "radius":2000.0,
    "poi_type":"other",
    "description":"Kelurahan rawan narkoba, tempat penjualan, dan penangkapan yang tinggi",
    "created_at":"2025-11-13 09:59:19.604581",
    "is_active":true
  },
  "db0771d1-4b16-4d00-9897-1e194681549d":{
    "id":"db0771d1-4b16-4d00-9897-1e194681549d",
    "name":"Kel. Pasir Gintung, Kecamatan Tanjung Karang Pusat, Bandar Lampung",
    "address":"Kel. Pasir Gintung, Kecamatan Tanjung Karang Pusat, Bandar Lampung",
    "lat":-5.4042568,
    "lon":105.2565555,
    "radius":2000.0,
    "poi_type":"other",
    "description":"Kelurahan rawan narkoba, tempat penjualan, dan penangkapan yang tinggi",
    "created_at":"2025-11-13 09:59:19.604599",
    "is_active":true
  },
  "c251a8a5-e0c3-4366-9d43-aed7447fc570":{
    "id":"c251a8a5-e0c3-4366-9d43-aed7447fc570",
    "name":"Kel. Keteguhan, Kecamatan Teluk Betung Timur, Bandar Lampung",
    "address":"Kel. Keteguhan, Kecamatan Teluk Betung Timur, Bandar Lampung",
    "lat":-5.4599289,
    "lon":105.2384967,
    "radius":2000.0,
    "poi_type":"other",
    "description":"Kelurahan rawan narkoba, tempat penjualan, dan penangkapan yang tinggi",
    "created_at":"2025-11-13 09:59:19.604617",
    "is_active":true
  },
  "c7de6a6f-23f2-4f3e-98af-e4586fb8fc92":{
    "id":"c7de6a6f-23f2-4f3e-98af-e4586fb8fc92",
    "name":"Desa Wiralaga II, Kecamatan Mesuji, Kabupaten Mesuji",
    "address":"Desa Wiralaga II, Kecamatan Mesuji, Kabupaten Mesuji",
    "lat":-3.8439273,
    "lon":105.4941199,
    "radius":2000.0,
    "poi_type":"other",
    "description":"Kelurahan rawan narkoba, tempat penjualan, dan penangkapan yang tinggi",
    "created_at":"2025-11-13 09:59:19.604634",
    "is_active":true
  },
  "db423547-8344-431b-99d0-ccfbf4c09c3f":{
    "id":"db423547-8344-431b-99d0-ccfbf4c09c3f",
    "name":"Desa Wiralaga I, Kecamatan Mesuji, Kabupaten Mesuji",
    "address":"Desa Wiralaga I, Kecamatan Mesuji, Kabupaten Mesuji",
    "lat":-3.8683844,
    "lon":105.471249,
    "radius":2000.0,
    "poi_type":"other",
    "description":"Kelurahan rawan narkoba, tempat penjualan, dan penangkapan yang tinggi",
    "created_at":"2025-11-13 09:59:19.604652",
    "is_active":true
  },
  "3d5e315a-3d84-44e8-a02d-c0269de089ef":{
    "id":"3d5e315a-3d84-44e8-a02d-c0269de089ef",
    "name":"Kel. Negeri Olok Gading, Kecamatan Teluk Betung Barat, Bandar Lampung",
    "address":"Kel. Negeri Olok Gading, Kecamatan Teluk Betung Barat, Bandar Lampung",
    "lat":-5.4458109,
    "lon":105.2465961,
    "radius":2000.0,
    "poi_type":"other",
    "description":"Kelurahan rawan narkoba, tempat penjualan, dan penangkapan yang tinggi",
    "created_at":"2025-11-13 09:59:19.604673",
    "is_active":true
  },
  "440d6843-62bd-47c6-bcbc-5c193bff1abe":{
    "id":"440d6843-62bd-47c6-bcbc-5c193bff1abe",
    "name":"Kel. Bakung, Kecamatan Teluk Betung Barat, Bandar Lampung",
    "address":"Kel. Bakung, Kecamatan Teluk Betung Barat, Bandar Lampung",
    "lat":-5.4464476,
    "lon":105.2513289,
    "radius":2000.0,
    "poi_type":"other",
    "description":"Kelurahan rawan narkoba, tempat penjualan, dan penangkapan yang tinggi",
    "created_at":"2025-11-13 09:59:19.604691",
    "is_active":true
  },
  "1e7991c7-007b-4450-b102-e0dd5d2d7a45":{
    "id":"1e7991c7-007b-4450-b102-e0dd5d2d7a45",
    "name":"Kel. Gedong Pakuon, Kecamatan Teluk Betung Selatan, Bandar Lampung",
    "address":"Kel. Gedong Pakuon, Kecamatan Teluk Betung Selatan, Bandar Lampung",
    "lat":-5.4436685,
    "lon":105.2538573,
    "radius":2000.0,
    "poi_type":"other",
    "description":"Kelurahan rawan narkoba, tempat penjualan, dan penangkapan yang tinggi",
    "created_at":"2025-11-13 09:59:19.604709",
    "is_active":true
  },
  "0c1cca07-d69d-4705-9ba5-ac1499477d4c":{
    "id":"0c1cca07-d69d-4705-9ba5-ac1499477d4c",
    "name":"Kel. Sukajawa Baru, Kecamatan Tanjung Karang Barat, Bandar Lampung",
    "address":"Kel. Sukajawa Baru, Kecamatan Tanjung Karang Barat, Bandar Lampung",
    "lat":-5.4063412,
    "lon":105.2501999,
    "radius":2000.0,
    "poi_type":"other",
    "description":"Kelurahan rawan narkoba, tempat penjualan, dan penangkapan yang tinggi",
    "created_at":"2025-11-13 09:59:19.604726",
    "is_active":true
  },
  "0f27decc-7292-4ccb-b5bc-9029371d6dd9":{
    "id":"0f27decc-7292-4ccb-b5bc-9029371d6dd9",
    "name":"Kel. Beringin Raya, Kecamatan Kemiling, Bandar Lampung",
    "address":"Kel. Beringin Raya, Kecamatan Kemiling, Bandar Lampung",
    "lat":-5.4011576,
    "lon":105.2048546,
    "radius":2000.0,
    "poi_type":"other",
    "description":"Kelurahan rawan narkoba, tempat penjualan, dan penangkapan yang tinggi",
    "created_at":"2025-11-13 09:59:19.604744",
    "is_active":true
  },
  "dfa79ebd-e004-4614-b956-ab6fc4578fd8":{
    "id":"dfa79ebd-e004-4614-b956-ab6fc4578fd8",
    "name":"Kel. Penengahan, Kecamatan Kedaton, Bandar Lampung",
    "address":"Kel. Penengahan, Kecamatan Kedaton, Bandar Lampung",
    "lat":-5.4010447,
    "lon":105.2589778,
    "radius":2000.0,
    "poi_type":"other",
    "description":"Kelurahan rawan narkoba, tempat penjualan, dan penangkapan yang tinggi",
    "created_at":"2025-11-13 09:59:19.604761",
    "is_active":true
  },
  "7d2e9fbe-7b33-4cb0-86ac-07401e9bb308":{
    "id":"7d2e9fbe-7b33-4cb0-86ac-07401e9bb308",
    "name":"Kel. Sidodadi, Kecamatan Kedaton, Bandar Lampung",
    "address":"Kel. Sidodadi, Kecamatan Kedaton, Bandar Lampung",
    "lat":-5.3931841,
    "lon":105.2594737,
    "radius":2000.0,
    "poi_type":"other",
    "description":"Kelurahan rawan narkoba, tempat penjualan, dan penangkapan yang tinggi",
    "created_at":"2025-11-13 09:59:19.604779",
    "is_active":true
  },
  "45e747d4-7953-48bc-ad06-05e1ea76c02d":{
    "id":"45e747d4-7953-48bc-ad06-05e1ea76c02d",
    "name":"Kel. Perumnas Way Halim, Kecamatan Way Halim, Bandar Lampung",
    "address":"Kel. Perumnas Way Halim, Kecamatan Way Halim, Bandar Lampung",
    "lat":-5.3777793,
    "lon":105.2765351,
    "radius":2000.0,
    "poi_type":"other",
    "description":"Kelurahan rawan narkoba, tempat penjualan, dan penangkapan yang tinggi",
    "created_at":"2025-11-13 09:59:19.604796",
    "is_active":true
  },
  "b28b4029-d463-48d1-a0ed-ef0973f2d920":{
    "id":"b28b4029-d463-48d1-a0ed-ef0973f2d920",
    "name":"Kel. Jagabaya II Kecamatan Way Halim, Bandar Lampung",
    "address":"Kel. Jagabaya II Kecamatan Way Halim, Bandar Lampung",
    "lat":-5.4008202,
    "lon":105.2677562,
    "radius":2000.0,
    "poi_type":"other",
    "description":"Kelurahan rawan narkoba, tempat penjualan, dan penangkapan yang tinggi",
    "created_at":"2025-11-13 09:59:19.604813",
    "is_active":true
  },
  "d8fbbdab-2e86-46fa-9cc0-271f66a0ecfa":{
    "id":"d8fbbdab-2e86-46fa-9cc0-271f66a0ecfa",
    "name":"Desa Merak Bating, Kecamatan Natar, Lampung Selatan",
    "address":"Desa Merak Bating, Kecamatan Natar, Lampung Selatan",
    "lat":-5.3018109,
    "lon":105.2253316,
    "radius":2000.0,
    "poi_type":"other",
    "description":"Kelurahan rawan narkoba, tempat penjualan, dan penangkapan yang tinggi",
    "created_at":"2025-11-13 09:59:19.604830",
    "is_active":true
  },
  "95ce8c52-a72f-4868-afe4-78808858e1a7":{
    "id":"95ce8c52-a72f-4868-afe4-78808858e1a7",
    "name":"Desa Pemanggilan, Kecamatan Natar, Lampung Selatan",
    "address":"Desa Pemanggilan, Kecamatan Natar, Lampung Selatan",
    "lat":-5.3426284,
    "lon":105.2136302,
    "radius":2000.0,
    "poi_type":"other",
    "description":"Kelurahan rawan narkoba, tempat penjualan, dan penangkapan yang tinggi",
    "created_at":"2025-11-13 09:59:19.604855",
    "is_active":true
  },